[
  {
    "store_number": 3, 
    "name": "Restaurant #3", 
    "phone": "718-639-5193", 
    "image_url": "http://www.mcpennsylvania.com/images/restaurant_photos/default_photo.jpg", 
    "address": "5725 Roosevelt Ave.\nWoodside, NY 11377", 
    "lat": 40.7455, 
    "lng": -73.9067122
  }, 
  {
    "store_number": 6, 
    "name": "Texaco", 
    "drive": "5:00 11:00", 
    "phone": "251-653-7099", 
    "image_url": "http://www.mcpennsylvania.com/images/operators/1000012059/6.jpg", 
    "address": "7040 Theodore Dawes Rd\nTheodore, AL 36582", 
    "lat": 30.5611122, 
    "lng": -88.20657469999999, 
    "lobby": "5:00 11:00"
  }, 
  {
    "store_number": 7, 
    "name": "St. Martin", 
    "drive": "24 Hours", 
    "phone": "228-875-7824", 
    "image_url": "http://www.mcpennsylvania.com/images/restaurant_photos/default_photo.jpg", 
    "address": "7501 Washington Ave\nOcean Springs, MS 39564", 
    "lat": 30.4496173, 
    "lng": -88.8419512, 
    "lobby": "24 Hours"
  }, 
  {
    "store_number": 13, 
    "name": "Restaurant #13", 
    "drive": " ", 
    "phone": "718-863-9523", 
    "image_url": "http://www.mcpennsylvania.com/images/restaurant_photos/default_photo.jpg", 
    "address": "1317 Castlehill Ave.\nBronx, NY 10462", 
    "lat": 40.8345906, 
    "lng": -73.85221779999999, 
    "lobby": "6:00 11:00"
  }, 
  {
    "store_number": 14, 
    "name": "Woodrow Plaza", 
    "phone": "718-227-7331", 
    "image_url": "http://www.mcpennsylvania.com/images/restaurant_photos/default_photo.jpg", 
    "address": "645 Rossville Ave.\nStaten Island, NY 10309", 
    "lat": 40.5427718, 
    "lng": -74.2078085
  }, 
  {
    "store_number": 15, 
    "name": "McDonald's of Denver City", 
    "phone": "806-592-7488", 
    "image_url": "http://www.mcpennsylvania.com/images/restaurant_photos/default_photo.jpg", 
    "address": "515 W. Broadway\nDenver City, TX 79323", 
    "lat": 32.9643856, 
    "lng": -102.8342272
  }, 
  {
    "store_number": 22, 
    "name": "McDonald's in Puyallup Walmart", 
    "phone": "253-840-3051", 
    "image_url": "http://www.mcpennsylvania.com/images/restaurant_photos/default_photo.jpg", 
    "address": "310 31st Ave. SE,\n Walmart,\nPuyallup, WA 98374", 
    "lat": 47.1853785, 
    "lng": -122.2928974
  }, 
  {
    "store_number": 26, 
    "name": "Restaurant #26", 
    "phone": "773-283-5544", 
    "image_url": "http://www.mcpennsylvania.com/images/restaurant_photos/default_photo.jpg", 
    "address": "4320 N. Cicero\nChicago, IL 60651", 
    "lat": 41.9593144, 
    "lng": -87.7479075
  }, 
  {
    "store_number": 28, 
    "name": "Skokie", 
    "drive": "24 Hours", 
    "phone": "847-675-4411", 
    "image_url": "http://www.mcpennsylvania.com/images/restaurant_photos/default_photo.jpg", 
    "address": "4830 Dempster St.\nSkokie, IL 60077", 
    "lat": 42.0410551, 
    "lng": -87.74862809999999, 
    "lobby": "24 Hours"
  }, 
  {
    "store_number": 29, 
    "name": "Restaurant #29", 
    "phone": "773-493-5800", 
    "image_url": "http://www.mcpennsylvania.com/images/restaurant_photos/default_photo.jpg", 
    "address": "6560 S. Stoney Island Ave.\nChicago, IL 60837", 
    "lat": 41.7756657, 
    "lng": -87.58636299999999
  }, 
  {
    "store_number": 32, 
    "name": "Restaurant #32", 
    "phone": "847-827-1220", 
    "image_url": "http://www.mcpennsylvania.com/images/restaurant_photos/default_photo.jpg", 
    "address": "444 S. River Rd.\nDes Plaines, IL 60016", 
    "lat": 42.0452999, 
    "lng": -87.88551939999999
  }, 
  {
    "store_number": 37, 
    "name": "Fresno/ Blackstone Ave.", 
    "phone": "559-229-0539", 
    "image_url": "http://www.mcpennsylvania.com/images/restaurant_photos/default_photo.jpg", 
    "address": "3115 N. Blackstone Ave.\nFresno, CA 93703", 
    "lat": 36.7789461, 
    "lng": -119.7908846
  }, 
  {
    "store_number": 38, 
    "name": "Reseda", 
    "drive": "5:30 1:00", 
    "phone": "818-881-8385", 
    "image_url": "http://www.mcpennsylvania.com/images/restaurant_photos/default_photo.jpg", 
    "address": "18761 Sherman Way\nReseda, CA 91335", 
    "lat": 34.2014262, 
    "lng": -118.542322, 
    "lobby": "5:30 11:00"
  }, 
  {
    "store_number": 39, 
    "name": "Restaurant #39", 
    "phone": "310-649-5617", 
    "image_url": "http://www.mcpennsylvania.com/images/restaurant_photos/default_photo.jpg", 
    "address": "6904 La Tijera Blvd.\nLos Angeles, CA 90045", 
    "lat": 33.975492, 
    "lng": -118.373305
  }, 
  {
    "store_number": 40, 
    "name": "Restaurant #40", 
    "phone": "202-529-5126", 
    "image_url": "http://www.mcpennsylvania.com/images/restaurant_photos/default_photo.jpg", 
    "address": "4950 South Dakota Avenue, N.E.\nWashington, DC 20017", 
    "lat": 38.94946530000001, 
    "lng": -76.9933493
  }, 
  {
    "store_number": 47, 
    "name": "Fruitridge McDonald's", 
    "drive": "5:00 2:00", 
    "phone": "(916)453-1615", 
    "image_url": "http://www.mcpennsylvania.com/images/operators/1000014070/47.jpg", 
    "address": "5425 Fruitridge Rd\nSacramento, CA 95820", 
    "lat": 38.525314, 
    "lng": -121.441833, 
    "lobby": "6:00 9:00"
  }, 
  {
    "store_number": 49, 
    "name": "Restaurant #49", 
    "phone": "815-725-9651", 
    "image_url": "http://www.mcpennsylvania.com/images/restaurant_photos/default_photo.jpg", 
    "address": "1515 W. Jefferson\nJoliet, IL 60435", 
    "lat": 41.52313609999999, 
    "lng": -88.1195054
  }, 
  {
    "store_number": 52, 
    "name": "Restaurant #52", 
    "drive": " ", 
    "phone": "714-971-2840", 
    "image_url": "http://www.mcpennsylvania.com/images/operators/1000006320/52.jpg", 
    "address": "12542 Harbor Blvd.\nGarden Grove, CA 92840", 
    "lat": 33.780875, 
    "lng": -117.914369, 
    "lobby": "5:00 12:00"
  }, 
  {
    "store_number": 53, 
    "name": "O'Keefe Family McDonald's-Northlake", 
    "drive": "24 Hours", 
    "phone": "708-681-1073", 
    "image_url": "http://www.mcpennsylvania.com/images/operators/1000022530/53.jpg", 
    "address": "One E. North Ave.\nNorthlake, IL 60164", 
    "lat": 41.906645, 
    "lng": -87.90289, 
    "lobby": "24 Hours"
  }, 
  {
    "store_number": 55, 
    "name": "Downers Grove East", 
    "drive": "24 Hours", 
    "phone": "630-969-6310", 
    "image_url": "http://www.mcpennsylvania.com/images/operators/1000009041/55.jpg", 
    "address": "225 Ogden Ave.\nDowners Grove, IL 60515", 
    "lat": 41.8096071, 
    "lng": -87.9920125, 
    "lobby": "5:00 6:00"
  }, 
  {
    "store_number": 56, 
    "name": "Kedzie & Peterson", 
    "phone": "773-588-8860", 
    "image_url": "http://www.mcpennsylvania.com/images/restaurant_photos/default_photo.jpg", 
    "address": "3241 W. Peterseon Ave\nChicago, IL 60645", 
    "lat": 41.99002240000001, 
    "lng": -87.71054250000002
  }, 
  {
    "store_number": 57, 
    "name": "Hybla Valley", 
    "phone": "703-768-1930", 
    "image_url": "http://www.mcpennsylvania.com/images/restaurant_photos/default_photo.jpg", 
    "address": "7614 Richmond Highway\nAlexandria, VA 22306", 
    "lat": 38.750952, 
    "lng": -77.08363419999999
  }, 
  {
    "store_number": 59, 
    "name": "Restaurant #59", 
    "phone": "708-862-9707", 
    "image_url": "http://www.mcpennsylvania.com/images/restaurant_photos/default_photo.jpg", 
    "address": "656 River Oaks Dr.\nCalumet City, IL 60409", 
    "lat": 41.60040840000001, 
    "lng": -87.54098839999999
  }, 
  {
    "store_number": 61, 
    "name": "Lehigh Street McDonald's", 
    "drive": "5:00 12:00", 
    "phone": "610-797-4150", 
    "image_url": "http://www.mcpennsylvania.com/images/restaurant_photos/default_photo.jpg", 
    "address": "3020 Lehigh Street\nAllentown, PA 18103", 
    "lat": 40.55976099999999, 
    "lng": -75.487803, 
    "lobby": "6:00 11:00"
  }, 
  {
    "store_number": 63, 
    "name": "Roseville", 
    "drive": "5:00 12:00", 
    "phone": "651-631-1630", 
    "image_url": "http://www.mcpennsylvania.com/images/restaurant_photos/default_photo.jpg", 
    "address": "2075 Snelling Ave., North\nRoseville, MN 55113", 
    "lat": 45.003603, 
    "lng": -93.1675039, 
    "lobby": "5:00 11:00"
  }, 
  {
    "store_number": 66, 
    "name": "North Bend", 
    "phone": "513-662-2217", 
    "image_url": "http://www.mcpennsylvania.com/images/restaurant_photos/default_photo.jpg", 
    "address": "5425 West North Bend Road\nCincinnati, OH 45239", 
    "lat": 39.1907642, 
    "lng": -84.5993034
  }, 
  {
    "store_number": 68, 
    "name": "Sheridan Road", 
    "drive": "24 Hours", 
    "phone": "262-654-4840", 
    "image_url": "http://www.mcpennsylvania.com/images/restaurant_photos/default_photo.jpg", 
    "address": "8056 Sheridan Rd\nKenosha, WI 53142", 
    "lat": 42.5571308, 
    "lng": -87.8253575, 
    "lobby": "24 Hours"
  }, 
  {
    "store_number": 70, 
    "name": "4849 McKnight Road", 
    "drive": "24 Hours", 
    "phone": "412-364-4773", 
    "image_url": "http://www.mcpennsylvania.com/images/restaurant_photos/default_photo.jpg", 
    "address": "4849 McKnight Rd.\nPittsburgh, PA 15237", 
    "lat": 40.528545, 
    "lng": -80.008239, 
    "lobby": "5:00 12:00"
  }, 
  {
    "store_number": 71, 
    "name": "Crestwood", 
    "drive": "6:30 11:00", 
    "phone": "314-965-0815", 
    "image_url": "http://www.mcpennsylvania.com/images/operators/1000002096/71.jpg", 
    "address": "9915 Watson Rd.\nCrestwood, MO 63126", 
    "lat": 38.5570734, 
    "lng": -90.3937852, 
    "lobby": "6:30 11:00"
  }, 
  {
    "store_number": 72, 
    "name": "McDonald's Lake St", 
    "drive": "24 Hours", 
    "phone": "630-897-2052", 
    "image_url": "http://www.mcpennsylvania.com/images/restaurant_photos/default_photo.jpg", 
    "address": "1023 N. Lake Street\nAurora, IL 60506", 
    "lat": 41.7786135, 
    "lng": -88.31513609999999, 
    "lobby": "6:00 10:00"
  }, 
  {
    "store_number": 73, 
    "name": "Glen Ellyn", 
    "drive": "24 Hours", 
    "phone": "630-858-1114", 
    "image_url": "http://www.mcpennsylvania.com/images/restaurant_photos/default_photo.jpg", 
    "address": "445 W. Roosevelt Rd.\nGlen Ellyn, IL 60137", 
    "lat": 41.858901, 
    "lng": -88.070507, 
    "lobby": "5:00 11:00"
  }, 
  {
    "store_number": 74, 
    "name": "McDonald's Restaurant", 
    "phone": "517-371-4266", 
    "image_url": "http://www.mcpennsylvania.com/images/operators/100062/74.jpg", 
    "address": "2120 N. Larch St.\nLansing, MI 48906", 
    "lat": 42.756994, 
    "lng": -84.54333489999999
  }, 
  {
    "store_number": 76, 
    "name": "University", 
    "drive": "24 Hours", 
    "phone": "309-685-9397", 
    "image_url": "http://www.mcpennsylvania.com/images/operators/1000011547/76.jpg", 
    "address": "3600 N University St\nPeoria, IL 61604", 
    "lat": 40.7314971, 
    "lng": -89.6120596, 
    "lobby": "24 Hours"
  }, 
  {
    "store_number": 77, 
    "name": "Lathrop Ave", 
    "drive": "24 Hours", 
    "phone": "262-544-1100", 
    "image_url": "http://www.mcpennsylvania.com/images/restaurant_photos/default_photo.jpg", 
    "address": "2100 Lathrop Ave\nRacine, WI 53405", 
    "lat": 42.7041261, 
    "lng": -87.825977, 
    "lobby": "6:00 11:00"
  }, 
  {
    "store_number": 78, 
    "name": "O'Keefe Family McDonald's-Villa Park", 
    "drive": "24 Hours", 
    "phone": "630-530-0187", 
    "image_url": "http://www.mcpennsylvania.com/images/operators/1000022530/78.jpg", 
    "address": "350 E. St. Charles Rd.\nVilla Park, IL 60181", 
    "lat": 41.89037800000001, 
    "lng": -87.970017, 
    "lobby": "24 Hours"
  }, 
  {
    "store_number": 79, 
    "name": "McDonald's Park Street", 
    "phone": "608-251-1993", 
    "image_url": "http://www.mcpennsylvania.com/images/restaurant_photos/default_photo.jpg", 
    "address": "2402 S Park St\nMadison, WI 53713", 
    "lat": 43.03951000000001, 
    "lng": -89.3947189
  }, 
  {
    "store_number": 80, 
    "name": "Summit St. McDonald's", 
    "drive": "24 Hours", 
    "phone": "847-741-9768", 
    "image_url": "http://www.mcpennsylvania.com/images/operators/1000020851/80.jpg", 
    "address": "401 Summit Ave.\nElgin, IL 60120", 
    "lat": 42.0458347, 
    "lng": -88.2754721, 
    "lobby": "5:00 12:00"
  }, 
  {
    "store_number": 82, 
    "name": "Howard McDonalds", 
    "drive": "24 Hours", 
    "phone": "847-864-5988", 
    "image_url": "http://www.mcpennsylvania.com/images/restaurant_photos/default_photo.jpg", 
    "address": "1117 Howard St.\nEvanston, IL 60202", 
    "lat": 42.0197767, 
    "lng": -87.6877039, 
    "lobby": "5:00 12:00"
  }, 
  {
    "store_number": 83, 
    "name": "Restaurant #83", 
    "phone": "708-867-8686", 
    "image_url": "http://www.mcpennsylvania.com/images/restaurant_photos/default_photo.jpg", 
    "address": "5022 N. Harlem Ave.\nHarwood Heights, IL 60656", 
    "lat": 41.9715764, 
    "lng": -87.8071175
  }, 
  {
    "store_number": 84, 
    "name": "McLean -Elm", 
    "phone": "703-356-5071", 
    "image_url": "http://www.mcpennsylvania.com/images/restaurant_photos/default_photo.jpg", 
    "address": "6808 Elm Street\nMcLean, VA 22101", 
    "lat": 38.934671, 
    "lng": -77.1775
  }, 
  {
    "store_number": 86, 
    "name": "Caspers Company McDonald's", 
    "drive": "5:00 1:00", 
    "phone": "813-839-6651", 
    "image_url": "http://www.mcpennsylvania.com/images/operators/1000023792/86.jpg", 
    "address": "3515 S. Dale Mabry Hwy\nTampa, FL 33629", 
    "lat": 27.9109181, 
    "lng": -82.5067557, 
    "lobby": "5:00 12:00"
  }, 
  {
    "store_number": 87, 
    "name": "Northwest Hwy. in Palatine", 
    "phone": "847-255-2955", 
    "image_url": "http://www.mcpennsylvania.com/images/restaurant_photos/default_photo.jpg", 
    "address": "1570 E. Northwest Hwy\nPalatine, IL 60067", 
    "lat": 42.1323952, 
    "lng": -88.0912357
  }, 
  {
    "store_number": 88, 
    "name": "Main Street", 
    "drive": "24 Hours", 
    "phone": "309-452-4023", 
    "image_url": "http://www.mcpennsylvania.com/images/operators/1000011342/88.jpg", 
    "address": "804 South Main Street\nBloomington-Normal, IL 61761", 
    "lat": 40.5033763, 
    "lng": -88.99412219999999, 
    "lobby": "5:00 11:00"
  }, 
  {
    "store_number": 90, 
    "name": "McDonald's Restaurant", 
    "drive": "7:00 11:00", 
    "phone": "309-797-8725", 
    "image_url": "http://www.mcpennsylvania.com/images/operators/1000010358/90.jpg", 
    "address": "3433 Avenue of the Cities\nMoline, IL 61265", 
    "lat": 41.4915597, 
    "lng": -90.4880359, 
    "lobby": "7:00 11:00"
  }, 
  {
    "store_number": 91, 
    "name": "West", 
    "drive": "24 Hours", 
    "phone": "920-494-4472", 
    "image_url": "http://www.mcpennsylvania.com/images/operators/1000017745/91.jpg", 
    "address": "1587 Shawano Ave\nGreen Bay, WI 54303", 
    "lat": 44.52962609999999, 
    "lng": -88.06055669999999, 
    "lobby": "6:00 10:00"
  }, 
  {
    "store_number": 93, 
    "name": "St.Louis Park - Lake", 
    "drive": "5:00 12:00", 
    "phone": "952-929-0770", 
    "image_url": "http://www.mcpennsylvania.com/images/operators/1000019317/93.jpg", 
    "address": "6320 W. Lake St.\nSt. Louis Park, MN 55416", 
    "lat": 44.9424539, 
    "lng": -93.3598825, 
    "lobby": "5:00 11:00"
  }, 
  {
    "store_number": 94, 
    "name": "Madison Road", 
    "drive": "24 Hours", 
    "phone": "608-362-8718", 
    "image_url": "http://www.mcpennsylvania.com/images/operators/1000027844/94.jpg", 
    "address": "1443 Madison Rd\nBeloit, WI 53511", 
    "lat": 42.5171638, 
    "lng": -89.06321530000001, 
    "lobby": "5:00 11:00"
  }, 
  {
    "store_number": 95, 
    "name": "Restaurant #95", 
    "drive": "24 Hours", 
    "phone": "608-752-7521", 
    "image_url": "http://www.mcpennsylvania.com/images/operators/64/95.jpg", 
    "address": "1622 Milton Avenue\nJanesville, WI 53545", 
    "lat": 42.7040484, 
    "lng": -89.00632399999999, 
    "lobby": "4:00 1:00"
  }, 
  {
    "store_number": 97, 
    "name": "State St.", 
    "drive": "24 Hours", 
    "phone": "989-792-6951", 
    "image_url": "http://www.mcpennsylvania.com/images/operators/101062/97.jpg", 
    "address": "5008 State St.\nSaginaw, MI 48603", 
    "lat": 43.4372653, 
    "lng": -84.0152171, 
    "lobby": "24 Hours"
  }, 
  {
    "store_number": 100, 
    "name": "Memorial Blvd", 
    "drive": "24 Hours", 
    "phone": "863-688-6265", 
    "image_url": "http://www.mcpennsylvania.com/images/operators/1000013191/100.jpg", 
    "address": "715 E. Memorial Blvd\nLakeland, FL 33801", 
    "lat": 28.0546697, 
    "lng": -81.95060199999999, 
    "lobby": "6:00 10:00"
  }, 
  {
    "store_number": 101, 
    "name": "McDonald's Glenview", 
    "phone": "847-724-3711", 
    "image_url": "http://www.mcpennsylvania.com/images/operators/1000018557/101.jpg", 
    "address": "530 S. Waukegan Rd.\nGlenview, IL 60025", 
    "lat": 42.0637526, 
    "lng": -87.7997414
  }, 
  {
    "store_number": 103, 
    "name": "West Street", 
    "phone": "410-266-8023", 
    "image_url": "http://www.mcpennsylvania.com/images/restaurant_photos/default_photo.jpg", 
    "address": "1941 West Street\nAnnapolis, MD 21401", 
    "lat": 38.9805242, 
    "lng": -76.52766319999999
  }, 
  {
    "store_number": 104, 
    "name": "Livingston Rd", 
    "phone": "3018399211", 
    "image_url": "http://www.mcpennsylvania.com/images/restaurant_photos/default_photo.jpg", 
    "address": "5501 Livingston Road, S.E.\nForest Heights, MD 20745", 
    "lat": 38.814886, 
    "lng": -76.9977773
  }, 
  {
    "store_number": 108, 
    "name": "Danville - South Gilbert", 
    "drive": "4:30 1:00", 
    "phone": "217-446-4084", 
    "image_url": "http://www.mcpennsylvania.com/images/operators/1000024632/108.jpg", 
    "address": "109 South Gilbert Street\nDanville, IL 61832", 
    "lat": 40.1193942, 
    "lng": -87.63665499999999, 
    "lobby": "4:30 12:00"
  }, 
  {
    "store_number": 109, 
    "name": "28th Street", 
    "drive": "5:00 1:00", 
    "phone": "720.352.5825", 
    "image_url": "http://www.mcpennsylvania.com/images/operators/1000018197/109.jpg", 
    "address": "1800 28th St.\nBoulder, CO 80301", 
    "lat": 40.019227, 
    "lng": -105.257828, 
    "lobby": "5:00 12:00"
  }, 
  {
    "store_number": 110, 
    "name": "Peach Street", 
    "drive": "24 Hours", 
    "phone": "814-866-6865", 
    "image_url": "http://www.mcpennsylvania.com/images/restaurant_photos/default_photo.jpg", 
    "address": "4319 Peach St.\nErie, PA 16509", 
    "lat": 42.089276, 
    "lng": -80.0853319, 
    "lobby": "5:00 1:00"
  }, 
  {
    "store_number": 112, 
    "name": "Madison and Charles St.", 
    "drive": "24 Hours", 
    "phone": "765-284-8848", 
    "image_url": "http://www.mcpennsylvania.com/images/restaurant_photos/default_photo.jpg", 
    "address": "500 E. Charles St.\nMuncie, IN 47305", 
    "lat": 40.191249, 
    "lng": -85.38147699999999, 
    "lobby": "6:30 1:00"
  }, 
  {
    "store_number": 116, 
    "name": "Pleasure Ridge Park", 
    "drive": "24 Hours", 
    "phone": "502-935-2762", 
    "image_url": "http://www.mcpennsylvania.com/images/restaurant_photos/default_photo.jpg", 
    "address": "8600 Dixie Hwy\nLouisville, KY 40258", 
    "lat": 38.127948, 
    "lng": -85.850494, 
    "lobby": "7:00 11:00"
  }, 
  {
    "store_number": 117, 
    "name": "McDonald's Restaurant", 
    "drive": "24 Hours", 
    "phone": "616-531-6190", 
    "image_url": "http://www.mcpennsylvania.com/images/restaurant_photos/default_photo.jpg", 
    "address": "1221 28th St. SW\nWyoming, MI 49509", 
    "lat": 42.9138688, 
    "lng": -85.69634789999999, 
    "lobby": "5:00 12:00"
  }, 
  {
    "store_number": 119, 
    "name": "LIBERTYVILLE MILWAUKEE AVENUE", 
    "phone": "847-362-3040", 
    "image_url": "http://www.mcpennsylvania.com/images/restaurant_photos/default_photo.jpg", 
    "address": "1330 N Milwaukee Ave\nLibertyville, IL 60048", 
    "lat": 42.2975559, 
    "lng": -87.95610909999999
  }, 
  {
    "store_number": 121, 
    "name": "Sheboygan North", 
    "drive": "24 Hours", 
    "phone": "920-458-2421", 
    "image_url": "http://www.mcpennsylvania.com/images/restaurant_photos/default_photo.jpg", 
    "address": "2307 North Avenue\nSheboygan, WI 53083", 
    "lat": 43.773609, 
    "lng": -87.736729, 
    "lobby": "24 Hours"
  }, 
  {
    "store_number": 122, 
    "name": "Government Street McDonald's", 
    "drive": "5:00 11:00", 
    "phone": "251-471-5014", 
    "image_url": "http://www.mcpennsylvania.com/images/operators/1000023270/122.jpg", 
    "address": "2692 Government Blvd\nMobile, AL 36606", 
    "lat": 30.6661819, 
    "lng": -88.10647689999999, 
    "lobby": "5:00 11:00"
  }, 
  {
    "store_number": 123, 
    "name": "Restaurant #123", 
    "drive": " ", 
    "phone": "703-241-1488", 
    "image_url": "http://www.mcpennsylvania.com/images/operators/1000027607/123.jpg", 
    "address": "6729 Arlington Blvd.\nFalls Church, VA 22042", 
    "lat": 38.8688292, 
    "lng": -77.17682769999999, 
    "lobby": "5:00 12:00"
  }, 
  {
    "store_number": 124, 
    "name": "Union Boulevard McDonald's", 
    "drive": "5:00 6:00", 
    "phone": "610-437-7970", 
    "image_url": "http://www.mcpennsylvania.com/images/restaurant_photos/default_photo.jpg", 
    "address": "1321 Union Boulevard\nAllentown, PA 18103", 
    "lat": 40.6250395, 
    "lng": -75.435425, 
    "lobby": "5:00 11:00"
  }, 
  {
    "store_number": 128, 
    "name": "New Haven", 
    "drive": "24 Hours", 
    "phone": "260-749-8015", 
    "image_url": "http://www.mcpennsylvania.com/images/operators/1942002/128.jpg", 
    "address": "7502 Lincoln Hwy E\nFort Wayne, IN 46803", 
    "lat": 41.0693984, 
    "lng": -85.0452465, 
    "lobby": "24 Hours"
  }, 
  {
    "store_number": 132, 
    "name": "McDonald's Of Oshkosh - Jackson St.", 
    "phone": "920-231-2268", 
    "image_url": "http://www.mcpennsylvania.com/images/restaurant_photos/default_photo.jpg", 
    "address": "1863 N Jackson St\nOshkosh, WI 54901", 
    "lat": 44.04071039999999, 
    "lng": -88.5430536
  }, 
  {
    "store_number": 134, 
    "name": "Islip McDonald's", 
    "drive": "6:00 1:00", 
    "phone": "631-665-6420", 
    "image_url": "http://www.mcpennsylvania.com/images/operators/1000002192/134.jpg", 
    "address": "107 Main St.\nIslip, NY 11751", 
    "lat": 40.7282972, 
    "lng": -73.22541989999999, 
    "lobby": "6:00 11:00"
  }, 
  {
    "store_number": 135, 
    "name": "McDonald's West Sunshine", 
    "phone": "417-862-4241", 
    "image_url": "http://www.mcpennsylvania.com/images/restaurant_photos/default_photo.jpg", 
    "address": "501 West Sunshine\nSpringfield, MO 65807", 
    "lat": 37.1827216, 
    "lng": -93.29677749999999
  }, 
  {
    "store_number": 139, 
    "name": "McDonald's Restaurant", 
    "phone": "517-332-6647", 
    "image_url": "http://www.mcpennsylvania.com/images/restaurant_photos/default_photo.jpg", 
    "address": "1024 E. Grand River\nEast Lansing, MI 48823", 
    "lat": 42.7312269, 
    "lng": -84.470168
  }, 
  {
    "store_number": 142, 
    "name": "Fair Lawn McDonald's", 
    "drive": "6:30 11:00", 
    "phone": "201-794-1313", 
    "image_url": "http://www.mcpennsylvania.com/images/restaurant_photos/default_photo.jpg", 
    "address": "3701 Broadway\nFair Lawn, NJ 07410", 
    "lat": 40.9261469, 
    "lng": -74.0997096, 
    "lobby": "6:30 11:00"
  }, 
  {
    "store_number": 144, 
    "name": "Missouri Blvd.", 
    "phone": "573-635-5824", 
    "image_url": "http://www.mcpennsylvania.com/images/operators/1000012839/144.jpg", 
    "address": "1425 Missouri Blvd.\nJefferson City, MO 65109", 
    "lat": 38.5790901, 
    "lng": -92.1951896
  }, 
  {
    "store_number": 146, 
    "name": "12/JohnR", 
    "drive": "24 Hours", 
    "phone": "248-545-5134", 
    "image_url": "http://www.mcpennsylvania.com/images/restaurant_photos/default_photo.jpg", 
    "address": "28220 John R/12 Mile Rd\nMadison Heights, MI 48071", 
    "lat": 42.5047709, 
    "lng": -83.105879, 
    "lobby": "5:00 11:00"
  }, 
  {
    "store_number": 147, 
    "name": "Wahsatch", 
    "drive": "5:00 12:00", 
    "phone": "719-634-7589", 
    "image_url": "http://www.mcpennsylvania.com/images/restaurant_photos/default_photo.jpg", 
    "address": "207 N. Wahsatch\nColorado Springs, CO 80903", 
    "lat": 38.836865, 
    "lng": -104.8173039, 
    "lobby": "5:00 11:00"
  }, 
  {
    "store_number": 148, 
    "name": "McDonald's of Newington", 
    "drive": "24 Hours", 
    "phone": "860-667-4600", 
    "image_url": "http://www.mcpennsylvania.com/images/operators/1000016884/148.jpg", 
    "address": "2375 Berlin Tpke\nNewington, CT 06111", 
    "lat": 41.6877626, 
    "lng": -72.7081496, 
    "lobby": "24 Hours"
  }, 
  {
    "store_number": 151, 
    "name": "Caspers Company McDonald's", 
    "drive": "24 Hours", 
    "phone": "813-935-4477", 
    "image_url": "http://www.mcpennsylvania.com/images/restaurant_photos/default_photo.jpg", 
    "address": "8214 N. Florida Ave.\nTampa, FL 33604", 
    "lat": 28.023043, 
    "lng": -82.459952, 
    "lobby": "24 Hours"
  }, 
  {
    "store_number": 152, 
    "name": "Mid Cleveland", 
    "drive": "24 Hours", 
    "phone": "239-936-3054", 
    "image_url": "http://www.mcpennsylvania.com/images/operators/1000023103/152.jpg", 
    "address": "3645 Cleveland Ave.\nFt. Myers, FL 33901", 
    "lat": 26.609518, 
    "lng": -81.87136199999999, 
    "lobby": "24 Hours"
  }, 
  {
    "store_number": 154, 
    "name": "Henderson Street", 
    "drive": "24 Hours", 
    "phone": "309-343-8340", 
    "image_url": "http://www.mcpennsylvania.com/images/restaurant_photos/default_photo.jpg", 
    "address": "1072 North Henderson Street\nGalesburg, IL 61401", 
    "lat": 40.9606083, 
    "lng": -90.3837231, 
    "lobby": "6:00 11:00"
  }, 
  {
    "store_number": 156, 
    "name": "Coliseum", 
    "drive": "24 Hours", 
    "phone": "260-483-1212", 
    "image_url": "http://www.mcpennsylvania.com/images/operators/1942002/156.jpg", 
    "address": "255 E Coliseum Blvd\nFort Wayne, IN 46805", 
    "lat": 41.1182733, 
    "lng": -85.1379424, 
    "lobby": "24 Hours"
  }, 
  {
    "store_number": 158, 
    "name": "Lakeshore", 
    "drive": "6:00 11:00", 
    "phone": "231-755-2585", 
    "image_url": "http://www.mcpennsylvania.com/images/operators/1000021115/158.jpg", 
    "address": "1831 W. Sherman Blvd\nMuskegon, MI 49441", 
    "lat": 43.205254, 
    "lng": -86.2896694, 
    "lobby": "7:00 10:00"
  }, 
  {
    "store_number": 159, 
    "name": "Winona West", 
    "drive": "24 Hours", 
    "phone": "507-452-9488", 
    "image_url": "http://www.mcpennsylvania.com/images/operators/1000018064/159.jpg", 
    "address": "1620 Service Drive\nWinona, MN 55987", 
    "lat": 44.0511317, 
    "lng": -91.6814306, 
    "lobby": "24 Hours"
  }, 
  {
    "store_number": 160, 
    "name": "East Brunswick Route 18 North", 
    "drive": "24 Hours", 
    "phone": "732-257-8383", 
    "image_url": "http://www.mcpennsylvania.com/images/restaurant_photos/default_photo.jpg", 
    "address": "730 Route 18 N.\nEast Brunswick, NJ 08816", 
    "lat": 40.4279875, 
    "lng": -74.3823554, 
    "lobby": "24 Hours"
  }, 
  {
    "store_number": 162, 
    "name": "Hastings", 
    "drive": "24 Hours", 
    "phone": "715-835-9919", 
    "image_url": "http://www.mcpennsylvania.com/images/operators/1000022138/162.jpg", 
    "address": "1513 South Hastings Way\nEau Claire, WI 54701", 
    "lat": 44.8024079, 
    "lng": -91.469304, 
    "lobby": "5:00 11:00"
  }, 
  {
    "store_number": 163, 
    "name": "McDonald's on Military Ave.", 
    "drive": "5:30 11:00", 
    "phone": "920-922-7070", 
    "image_url": "http://www.mcpennsylvania.com/images/operators/1000005106/163.jpg", 
    "address": "699 S Military Rd\nFond du Lac, WI 54935", 
    "lat": 43.7636821, 
    "lng": -88.46612139999999, 
    "lobby": "5:30 10:00"
  }, 
  {
    "store_number": 164, 
    "name": "Manitowoc McDonald's", 
    "drive": "24 Hours", 
    "phone": "920-682-5592", 
    "image_url": "http://www.mcpennsylvania.com/images/operators/1000015005/164.jpg", 
    "address": "3512 Calumet Ave\nManitowoc, WI 54220", 
    "lat": 44.0837126, 
    "lng": -87.6917526, 
    "lobby": "6:00 11:00"
  }, 
  {
    "store_number": 165, 
    "name": "JPR", 
    "drive": "5:00 12:00", 
    "phone": "414-321-1520", 
    "image_url": "http://www.mcpennsylvania.com/images/restaurant_photos/default_photo.jpg", 
    "address": "3137 South 76th Street\nMilwaukee, WI 53219", 
    "lat": 42.987426, 
    "lng": -88.00816999999999, 
    "lobby": "5:00 12:00"
  }, 
  {
    "store_number": 166, 
    "name": "S.Hillside McDonald's Restaurant", 
    "phone": "316-686-9612", 
    "image_url": "http://www.mcpennsylvania.com/images/operators/1000006974/166.jpg", 
    "address": "1630 South Hillside\nWichita, KS 67211", 
    "lat": 37.6640084, 
    "lng": -97.29844109999999
  }, 
  {
    "store_number": 168, 
    "name": "MacArthur McDonald's", 
    "phone": "217-546-5323", 
    "image_url": "http://www.mcpennsylvania.com/images/restaurant_photos/default_photo.jpg", 
    "address": "1825 South Macarthur Blvd.\nSpringfield, IL 62704", 
    "lat": 39.7804706, 
    "lng": -89.6687218
  }, 
  {
    "store_number": 169, 
    "name": "Propsect", 
    "drive": "24 Hours", 
    "phone": "517-782-9829", 
    "image_url": "http://www.mcpennsylvania.com/images/operators/1000021705/169.jpg", 
    "address": "407 W. Prospect\nJackson, MI 49203", 
    "lat": 42.2269808, 
    "lng": -84.415972, 
    "lobby": "5:00 10:00"
  }, 
  {
    "store_number": 171, 
    "name": "Business Loop McDonald's", 
    "drive": "24 Hours", 
    "phone": "573-443-7785", 
    "image_url": "http://www.mcpennsylvania.com/images/restaurant_photos/default_photo.jpg", 
    "address": "205 Business Loop, 70 East\nColumbia, MO 65203", 
    "lat": 38.96514850000001, 
    "lng": -92.3349437, 
    "lobby": "24 Hours"
  }, 
  {
    "store_number": 173, 
    "name": "Hwy 100 & National", 
    "drive": "4:30 12:00", 
    "phone": "414-543-6440", 
    "image_url": "http://www.mcpennsylvania.com/images/restaurant_photos/default_photo.jpg", 
    "address": "10915 West National Avenue\nWest Allis, WI 53227", 
    "lat": 42.99262, 
    "lng": -88.048001, 
    "lobby": "4:30 12:00"
  }, 
  {
    "store_number": 174, 
    "name": "Tri-Arch, Inc.  Fairview Park McDonald's", 
    "drive": "5:30 11:00", 
    "phone": "440-734-2033", 
    "image_url": "http://www.mcpennsylvania.com/images/operators/1000012972/174.jpg", 
    "address": "22535 Lorain Rd.\nFairview Park, OH 44126", 
    "lat": 41.4391942, 
    "lng": -81.86935439999999, 
    "lobby": "5:30 11:00"
  }, 
  {
    "store_number": 179, 
    "name": "North Euclid McDonald's", 
    "drive": "24 Hours", 
    "phone": "989-684-3626", 
    "image_url": "http://www.mcpennsylvania.com/images/operators/1000011524/179.jpg", 
    "address": "918 N. Euclid\nBay City, MI 48706", 
    "lat": 43.6125537, 
    "lng": -83.9146743, 
    "lobby": "5:00 11:00"
  }, 
  {
    "store_number": 180, 
    "name": "Bridgeport - North Main St.", 
    "drive": "24 Hours", 
    "phone": "203-371-5879", 
    "image_url": "http://www.mcpennsylvania.com/images/restaurant_photos/default_photo.jpg", 
    "address": "4219 Main St.\nBridgeport, CT 06606", 
    "lat": 41.2175879, 
    "lng": -73.2150663, 
    "lobby": "5:00 12:00"
  }, 
  {
    "store_number": 181, 
    "name": "8th Avenue", 
    "drive": "24 Hours", 
    "phone": "970-352-6786", 
    "image_url": "http://www.mcpennsylvania.com/images/operators/9034100000/181.jpg", 
    "address": "2440 8th Ave.\nGreeley, CO 80631", 
    "lat": 40.3986587, 
    "lng": -104.6905396, 
    "lobby": "24 Hours"
  }, 
  {
    "store_number": 183, 
    "name": "Levittown McDonald's", 
    "phone": "516-731-9112", 
    "image_url": "http://www.mcpennsylvania.com/images/restaurant_photos/default_photo.jpg", 
    "address": "3839 Hempstead Turnpike\nLevittown, NY 11756", 
    "lat": 40.7258505, 
    "lng": -73.4941255
  }, 
  {
    "store_number": 187, 
    "name": "Wilmington Pike", 
    "drive": "24 Hours", 
    "phone": "937-299-8643", 
    "image_url": "http://www.mcpennsylvania.com/images/operators/61/187.jpg", 
    "address": "2901 Wilmington Pike\nKettering, OH 45419", 
    "lat": 39.7047915, 
    "lng": -84.1424663, 
    "lobby": "24 Hours"
  }, 
  {
    "store_number": 188, 
    "name": "Cedar", 
    "phone": "517-393-8678", 
    "image_url": "http://www.mcpennsylvania.com/images/restaurant_photos/default_photo.jpg", 
    "address": "4700 S. Cedar St.\nLansing, MI 48910", 
    "lat": 42.68647199999999, 
    "lng": -84.548485
  }, 
  {
    "store_number": 189, 
    "name": "St.Charles East of Randall", 
    "drive": "24 Hours", 
    "phone": "630-377-7445", 
    "image_url": "http://www.mcpennsylvania.com/images/operators/1000006845/189.jpg", 
    "address": "1915 W. Main St.\nSt Charles, IL 60174", 
    "lat": 41.912323, 
    "lng": -88.33748299999999, 
    "lobby": "4:30 11:00"
  }, 
  {
    "store_number": 190, 
    "name": "College Avenue", 
    "drive": "24 Hours", 
    "phone": "970-482-1612", 
    "image_url": "http://www.mcpennsylvania.com/images/operators/1000013053/190.jpg", 
    "address": "2401 S. College Ave.\nFt. Collins, CO 80525", 
    "lat": 40.5560306, 
    "lng": -105.0775696, 
    "lobby": "5:00 1:00"
  }, 
  {
    "store_number": 191, 
    "name": "Columbia Ave", 
    "drive": "24 Hours", 
    "phone": "269-964-2578", 
    "image_url": "http://www.mcpennsylvania.com/images/restaurant_photos/default_photo.jpg", 
    "address": "812 W. Columbia Ave.\nBattle Creek, MI 49015", 
    "lat": 42.2985638, 
    "lng": -85.2148342, 
    "lobby": "5:00 11:00"
  }, 
  {
    "store_number": 192, 
    "name": "Summit Avenue", 
    "drive": "24 Hours", 
    "phone": "336-274-7328", 
    "image_url": "http://www.mcpennsylvania.com/images/operators/1000012778/192.jpg", 
    "address": "1101 Summit Ave\nGreensboro, NC 27405", 
    "lat": 36.089091, 
    "lng": -79.77461799999999, 
    "lobby": "24 Hours"
  }, 
  {
    "store_number": 193, 
    "name": "Niagara Falls Blvd South", 
    "phone": "716-833-2159", 
    "image_url": "http://www.mcpennsylvania.com/images/restaurant_photos/default_photo.jpg", 
    "address": "1385 Niagara Falls Blvd.\nAmherst, NY 14226", 
    "lat": 42.9917977, 
    "lng": -78.82182089999999
  }, 
  {
    "store_number": 197, 
    "name": "E. Market St.", 
    "drive": "24 Hours", 
    "phone": "330-733-3666", 
    "image_url": "http://www.mcpennsylvania.com/images/operators/1000015905/197.jpg", 
    "address": "2021 E. Market St.\nAkron, OH 44312", 
    "lat": 41.0611762, 
    "lng": -81.4549715, 
    "lobby": "5:00 11:00"
  }, 
  {
    "store_number": 198, 
    "name": "Centereach McDonalds", 
    "drive": "24 Hours", 
    "phone": "631-732-5254", 
    "image_url": "http://www.mcpennsylvania.com/images/restaurant_photos/default_photo.jpg", 
    "address": "1724 Middle Country Rd.\nCentereach, NY 11720", 
    "lat": 40.8596975, 
    "lng": -73.07270020000001, 
    "lobby": "6:00 11:00"
  }, 
  {
    "store_number": 200, 
    "name": "City of Fairfax", 
    "drive": "24 Hours", 
    "phone": "703-591-7557", 
    "image_url": "http://www.mcpennsylvania.com/images/restaurant_photos/default_photo.jpg", 
    "address": "10775 Lee Highway\nFairfax, VA 22030", 
    "lat": 38.8550939, 
    "lng": -77.31592719999999, 
    "lobby": "24 Hours"
  }, 
  {
    "store_number": 201, 
    "name": "Restaurant #201", 
    "phone": "203-799-8214", 
    "image_url": "http://www.mcpennsylvania.com/images/restaurant_photos/default_photo.jpg", 
    "address": "57 Boston Post Rd\nOrange, CT 06477", 
    "lat": 41.2786178, 
    "lng": -72.9878456
  }, 
  {
    "store_number": 202, 
    "name": "Columbia Heights", 
    "drive": "5:00 12:00", 
    "phone": "763-571-7416", 
    "image_url": "http://www.mcpennsylvania.com/images/operators/1000016662/202.jpg", 
    "address": "4605 Central Ave. NE\nMinneapolis, MN 55421", 
    "lat": 45.052105, 
    "lng": -93.24673299999999, 
    "lobby": "5:00 11:00"
  }, 
  {
    "store_number": 203, 
    "name": "122nd & Glisan St.", 
    "drive": "24 Hours", 
    "phone": "503-252-8057", 
    "image_url": "http://www.mcpennsylvania.com/images/operators/1000027042/203.jpg", 
    "address": "12109 NE Glisan Street\nPortland, OR 97220", 
    "lat": 45.52657960000001, 
    "lng": -122.5382615, 
    "lobby": "5:00 11:00"
  }, 
  {
    "store_number": 204, 
    "name": "NORTH CHICAGO", 
    "phone": "847-473-1699", 
    "image_url": "http://www.mcpennsylvania.com/images/restaurant_photos/default_photo.jpg", 
    "address": "2211 Greenbay Rd.\nNorth Chicago, IL 60064", 
    "lat": 42.3190195, 
    "lng": -87.8661692
  }, 
  {
    "store_number": 205, 
    "name": "Broadway &LIbby  McDonald's", 
    "drive": "5:30 11:00", 
    "phone": "216/475-2792", 
    "image_url": "http://www.mcpennsylvania.com/images/operators/1000017059/205.jpg", 
    "address": "15500 Broadway Ave\nMaple Heights, OH 44137", 
    "lat": 41.41727789999999, 
    "lng": -81.573332, 
    "lobby": "6:00 10:00"
  }, 
  {
    "store_number": 207, 
    "name": "West Seneca", 
    "phone": "716-674-7170", 
    "image_url": "http://www.mcpennsylvania.com/images/restaurant_photos/default_photo.jpg", 
    "address": "1154 Union Road\nW. Seneca, NY 14224", 
    "lat": 42.8312789, 
    "lng": -78.7541037
  }, 
  {
    "store_number": 209, 
    "name": "North Hamilton", 
    "drive": "24 Hours", 
    "phone": "712-255-4772", 
    "image_url": "http://www.mcpennsylvania.com/images/restaurant_photos/default_photo.jpg", 
    "address": "3093 Hamilton Blvd.\nSioux City, IA 51104", 
    "lat": 42.5237863, 
    "lng": -96.4178036, 
    "lobby": "5:00 11:00"
  }, 
  {
    "store_number": 210, 
    "name": "Restaurant #210", 
    "phone": "810-743-1120", 
    "image_url": "http://www.mcpennsylvania.com/images/restaurant_photos/default_photo.jpg", 
    "address": "G-3391 S. Saginaw St.\nBurton, MI 48529", 
    "lat": 42.9782105, 
    "lng": -83.672883
  }, 
  {
    "store_number": 211, 
    "name": "Adelphi", 
    "phone": "301-422-0220", 
    "image_url": "http://www.mcpennsylvania.com/images/restaurant_photos/default_photo.jpg", 
    "address": "2306 University Blvd.\nHyattsville, MD 20783", 
    "lat": 38.984569, 
    "lng": -76.970637
  }, 
  {
    "store_number": 212, 
    "name": "Erie McDonald's", 
    "drive": "24 Hours", 
    "phone": "513-868-7222", 
    "image_url": "http://www.mcpennsylvania.com/images/operators/1000012522/212.jpg", 
    "address": "1771 South Erie Blvd.\nHamilton, OH 45011", 
    "lat": 39.3783806, 
    "lng": -84.5502644, 
    "lobby": "7:00 11:00"
  }, 
  {
    "store_number": 216, 
    "name": "DeKalb One", 
    "drive": "24 Hours", 
    "phone": "815-756-5202", 
    "image_url": "http://www.mcpennsylvania.com/images/restaurant_photos/default_photo.jpg", 
    "address": "805 Lincoln Hwy\nDeKalb, IL 60115", 
    "lat": 41.9315556, 
    "lng": -88.7681592, 
    "lobby": "5:00 11:00"
  }, 
  {
    "store_number": 217, 
    "name": "TUNNEL ROAD", 
    "drive": "5:00 12:00", 
    "phone": "828-254-6715", 
    "image_url": "http://www.mcpennsylvania.com/images/restaurant_photos/default_photo.jpg", 
    "address": "51 Tunnel Road\nAsheville, NC 28805", 
    "lat": 35.595399, 
    "lng": -82.53336, 
    "lobby": "5:00 12:00"
  }, 
  {
    "store_number": 219, 
    "name": "Colfax & Kingston", 
    "phone": "303-364-5212", 
    "image_url": "http://www.mcpennsylvania.com/images/operators/9034100000/219.jpg", 
    "address": "11025 E. Colfax Ave.\nAurora, CO 80010", 
    "lat": 39.7404983, 
    "lng": -104.8597407
  }, 
  {
    "store_number": 220, 
    "name": "Menaul and San Pedro", 
    "drive": "5:00 12:00", 
    "phone": "505-884-3517", 
    "image_url": "http://www.mcpennsylvania.com/images/operators/1000018018/220.jpg", 
    "address": "5900 Menual Blvd. NE\nAlbuquerque, NM 87110", 
    "lat": 35.108694, 
    "lng": -106.5779256, 
    "lobby": "5:00 12:00"
  }, 
  {
    "store_number": 221, 
    "name": "SOUTH LINDENHURST", 
    "drive": "24 Hours", 
    "phone": "631-226-5313", 
    "image_url": "http://www.mcpennsylvania.com/images/operators/1000016868/221.jpg", 
    "address": "334 E. Montauk Hwy\nLindenhurst, NY 11757", 
    "lat": 40.6838141, 
    "lng": -73.3532639, 
    "lobby": "6:00 11:00"
  }, 
  {
    "store_number": 222, 
    "name": "Clio Rd.", 
    "drive": "24 Hours", 
    "phone": "810-239-9211", 
    "image_url": "http://www.mcpennsylvania.com/images/operators/1000016872/222.jpg", 
    "address": "3212 Clio Rd.\nFlint, MI 48504", 
    "lat": 43.0453515, 
    "lng": -83.7320329, 
    "lobby": "6:00 10:00"
  }, 
  {
    "store_number": 223, 
    "name": "West Main", 
    "drive": "6:00 11:00", 
    "phone": "605-342-3483", 
    "image_url": "http://www.mcpennsylvania.com/images/operators/1000021869/223.jpg", 
    "address": "2223 West Main Street\nRapid City, SD 57704", 
    "lat": 44.0814944, 
    "lng": -103.2567132, 
    "lobby": "6:00 10:00"
  }, 
  {
    "store_number": 225, 
    "name": "McDonald's", 
    "phone": "302-737-0502", 
    "image_url": "http://www.mcpennsylvania.com/images/restaurant_photos/default_photo.jpg", 
    "address": "374 East Main Street\nNewark, DE 19711", 
    "lat": 39.6856185, 
    "lng": -75.7374234
  }, 
  {
    "store_number": 226, 
    "name": "Lincolnway McDonald's", 
    "drive": "24 Hours", 
    "phone": "307-632-1222", 
    "image_url": "http://www.mcpennsylvania.com/images/operators/1000011105/226.jpg", 
    "address": "2535 E. Lincoln Way\nCheyenne, WY 82001", 
    "lat": 41.1372224, 
    "lng": -104.7665131, 
    "lobby": "24 Hours"
  }, 
  {
    "store_number": 229, 
    "name": "West Tuscarawas St", 
    "phone": "330-478-1684", 
    "image_url": "http://www.mcpennsylvania.com/images/restaurant_photos/default_photo.jpg", 
    "address": "4757 W. Tuscarawas St.\nCanton, OH 44708", 
    "lat": 40.7954134, 
    "lng": -81.4357252
  }, 
  {
    "store_number": 231, 
    "name": "Edison", 
    "drive": " ", 
    "phone": "732-985-3311", 
    "image_url": "http://www.mcpennsylvania.com/images/restaurant_photos/default_photo.jpg", 
    "address": "1966 Highway 27\nEdison, NJ 08817", 
    "lat": 40.5199076, 
    "lng": -74.39538399999999, 
    "lobby": "5:30 12:00"
  }, 
  {
    "store_number": 232, 
    "name": "Restaurant #232", 
    "phone": "303-934-6836", 
    "image_url": "http://www.mcpennsylvania.com/images/restaurant_photos/default_photo.jpg", 
    "address": "1905 S. Federal Blvd.\nDenver, CO 80219", 
    "lat": 39.6821023, 
    "lng": -105.0251673
  }, 
  {
    "store_number": 234, 
    "name": "Route 38 Cherry Hill", 
    "drive": "5:30 12:00", 
    "phone": "856-665-9601", 
    "image_url": "http://www.mcpennsylvania.com/images/restaurant_photos/default_photo.jpg", 
    "address": "801 Highway 38\nCherry Hill, NJ 08034", 
    "lat": 39.9360667, 
    "lng": -75.0441417, 
    "lobby": "6:00 11:00"
  }, 
  {
    "store_number": 235, 
    "name": "San Pedro and Lomas ABQ", 
    "drive": "24 Hours", 
    "phone": "505-265-4275", 
    "image_url": "http://www.mcpennsylvania.com/images/restaurant_photos/default_photo.jpg", 
    "address": "925 San Pedro Dr. NE\nAlbuquerque, NM 87108", 
    "lat": 35.0867907, 
    "lng": -106.5777149, 
    "lobby": "5:00 10:00"
  }, 
  {
    "store_number": 236, 
    "name": "Kenwood", 
    "drive": "12:00 1:00", 
    "phone": "513-791-5553", 
    "image_url": "http://www.mcpennsylvania.com/images/operators/1000017727/236.jpg", 
    "address": "7916 Montgomery Road\nCincinnati, OH 45236", 
    "lat": 39.1998691, 
    "lng": -84.3761392, 
    "lobby": "5:00 11:00"
  }, 
  {
    "store_number": 240, 
    "name": "McDonald's #240 (79th & Yates)", 
    "drive": "24 Hours", 
    "phone": "773-768-0153", 
    "image_url": "http://www.mcpennsylvania.com/images/restaurant_photos/default_photo.jpg", 
    "address": "2425 E. 79th St.\nChicago, IL 60649", 
    "lat": 41.7517111, 
    "lng": -87.5654114, 
    "lobby": "5:30 10:00"
  }, 
  {
    "store_number": 241, 
    "name": "Restaurant #241", 
    "drive": " ", 
    "phone": "301-881-6811", 
    "image_url": "http://www.mcpennsylvania.com/images/restaurant_photos/default_photo.jpg", 
    "address": "1390 Rockville Pike\nRockville, MD 20852", 
    "lat": 39.068177, 
    "lng": -77.12865599999999, 
    "lobby": "24 Hours"
  }, 
  {
    "store_number": 242, 
    "name": "East Northport McDonald's", 
    "phone": "631-499-9762", 
    "image_url": "http://www.mcpennsylvania.com/images/restaurant_photos/default_photo.jpg", 
    "address": "1999 Jericho Turnpike\nEast Northport, NY 11731", 
    "lat": 40.83893459999999, 
    "lng": -73.3278311
  }, 
  {
    "store_number": 248, 
    "name": "Plainfield", 
    "drive": "24 Hours", 
    "phone": "616-361-7133", 
    "image_url": "http://www.mcpennsylvania.com/images/restaurant_photos/default_photo.jpg", 
    "address": "3814 Plainfield Ave NE\nGrand Rapids, MI 49505", 
    "lat": 43.0319057, 
    "lng": -85.62534819999999, 
    "lobby": "5:00 12:00"
  }, 
  {
    "store_number": 249, 
    "name": "Orchard Street - Boise", 
    "drive": "6:30 11:00", 
    "phone": "208-336-0711", 
    "image_url": "http://www.mcpennsylvania.com/images/restaurant_photos/default_photo.jpg", 
    "address": "510 North Orchard\nBoise, ID 83704", 
    "lat": 43.6093522, 
    "lng": -116.2429185, 
    "lobby": "6:30 11:00"
  }, 
  {
    "store_number": 250, 
    "name": "Park Boulevard", 
    "phone": "727-544-7333", 
    "image_url": "http://www.mcpennsylvania.com/images/restaurant_photos/default_photo.jpg", 
    "address": "5170 Park Blvd.\nPinellas Park, FL 33780", 
    "lat": 27.838765, 
    "lng": -82.703463
  }, 
  {
    "store_number": 252, 
    "name": "Navy", 
    "phone": "850-470-9555", 
    "image_url": "http://www.mcpennsylvania.com/images/restaurant_photos/default_photo.jpg", 
    "address": "1107 N. Navy Blvd.\nPensacola, FL 32507", 
    "lat": 30.40595029999999, 
    "lng": -87.275662
  }, 
  {
    "store_number": 253, 
    "name": "Restaurant #253", 
    "drive": "24 Hours", 
    "phone": "703-370-5365", 
    "image_url": "http://www.mcpennsylvania.com/images/restaurant_photos/default_photo.jpg", 
    "address": "3510 Duke Street\nAlexandria, VA 22304", 
    "lat": 38.8085301, 
    "lng": -77.0908058, 
    "lobby": "24 Hours"
  }, 
  {
    "store_number": 255, 
    "name": "Hanover McDonald's", 
    "drive": "24 Hours", 
    "phone": "570-829-9846", 
    "image_url": "http://www.mcpennsylvania.com/images/restaurant_photos/default_photo.jpg", 
    "address": "746 San Souci Hwy\nWilkes Barre, PA 18702", 
    "lat": 41.2459149, 
    "lng": -75.88130749999999, 
    "lobby": "6:00 11:00"
  }, 
  {
    "store_number": 256, 
    "name": "Saginaw Rd", 
    "drive": "24 Hours", 
    "phone": "989-832-5932", 
    "image_url": "http://www.mcpennsylvania.com/images/operators/101062/256.jpg", 
    "address": "1711 S. Saginaw Rd.\nMidland, MI 48640", 
    "lat": 43.6136785, 
    "lng": -84.2130796, 
    "lobby": "24 Hours"
  }, 
  {
    "store_number": 258, 
    "name": "Preston Highway - Indian Trail", 
    "drive": "24 Hours", 
    "phone": "502-969-9272", 
    "image_url": "http://www.mcpennsylvania.com/images/restaurant_photos/default_photo.jpg", 
    "address": "5600 Preston Hwy\nLouisville, KY 40219", 
    "lat": 38.1683429, 
    "lng": -85.706848, 
    "lobby": "5:00 11:00"
  }, 
  {
    "store_number": 260, 
    "name": "Belvedere", 
    "phone": "864-226-9874", 
    "image_url": "http://www.mcpennsylvania.com/images/restaurant_photos/default_photo.jpg", 
    "address": "3024 N Main Street\nAnderson, SC 29621", 
    "lat": 34.537067, 
    "lng": -82.6666803
  }, 
  {
    "store_number": 261, 
    "name": "Linden Ave.", 
    "drive": "24 Hours", 
    "phone": "937-256-7901", 
    "image_url": "http://www.mcpennsylvania.com/images/restaurant_photos/default_photo.jpg", 
    "address": "4501 Linden Ave.\nDayton, OH 45432", 
    "lat": 39.7434967, 
    "lng": -84.1143375, 
    "lobby": "24 Hours"
  }, 
  {
    "store_number": 262, 
    "name": "McDonald's Northfield Rd.", 
    "drive": "5:30 11:00", 
    "phone": "216/581-0289", 
    "image_url": "http://www.mcpennsylvania.com/images/restaurant_photos/default_photo.jpg", 
    "address": "5114 Northfield Rd.\nMaple Heights, OH 44137", 
    "lat": 41.421238, 
    "lng": -81.527783, 
    "lobby": "6:00 10:00"
  }, 
  {
    "store_number": 264, 
    "name": "Magnolia Avenue", 
    "drive": "5:00 11:00", 
    "phone": "865.637.0267", 
    "image_url": "http://www.mcpennsylvania.com/images/operators/1000009921/264.jpg", 
    "address": "2812 Magnolia Avenue\nKnoxville, TN 37914", 
    "lat": 35.9910189, 
    "lng": -83.88965619999999, 
    "lobby": "5:00 11:00"
  }, 
  {
    "store_number": 265, 
    "name": "Middletown - Rt 35N", 
    "drive": "6:00 1:00", 
    "phone": "732-671-0925", 
    "image_url": "http://www.mcpennsylvania.com/images/restaurant_photos/default_photo.jpg", 
    "address": "925 Highway 35\nMiddletown, NJ 07748", 
    "lat": 40.3960085, 
    "lng": -74.10486499999999, 
    "lobby": "6:00 12:00"
  }, 
  {
    "store_number": 268, 
    "name": "Baden", 
    "drive": "5:00 11:00", 
    "phone": "724-869-2927", 
    "image_url": "http://www.mcpennsylvania.com/images/operators/1000005813/268.jpg", 
    "address": "300 Ohio River Blvd.\nBaden, PA 15005", 
    "lat": 40.6333226, 
    "lng": -80.22982449999999, 
    "lobby": "5:00 10:00"
  }, 
  {
    "store_number": 270, 
    "name": "McDonald's", 
    "drive": "24 Hours", 
    "phone": "574-293-6380", 
    "image_url": "http://www.mcpennsylvania.com/images/restaurant_photos/default_photo.jpg", 
    "address": "130 N. Main\nElkhart, IN 46514", 
    "lat": 41.6881411, 
    "lng": -85.9733219, 
    "lobby": "5:00 10:00"
  }, 
  {
    "store_number": 273, 
    "name": "Merrick McDonald's", 
    "drive": "6:00 12:00", 
    "phone": "516-868-4446", 
    "image_url": "http://www.mcpennsylvania.com/images/operators/1000002192/273.jpg", 
    "address": "1813 Merrick Rd.\nMerrick, NY 11566", 
    "lat": 40.653895, 
    "lng": -73.555691, 
    "lobby": "6:00 11:00"
  }, 
  {
    "store_number": 274, 
    "name": "Number 9", 
    "phone": "301-953-3368", 
    "image_url": "http://www.mcpennsylvania.com/images/operators/1000016137/274.jpg", 
    "address": "14810 Baltimore Ave\nLaurel, MD 20707", 
    "lat": 39.0941398, 
    "lng": -76.855057
  }, 
  {
    "store_number": 276, 
    "name": "State Road", 
    "drive": "5:00 12:00", 
    "phone": "330-923-3348", 
    "image_url": "http://www.mcpennsylvania.com/images/operators/1000015905/276.jpg", 
    "address": "1787 State Rd.\nCuyahoga Falls, OH 44223", 
    "lat": 41.1311063, 
    "lng": -81.50765729999999, 
    "lobby": "5:00 11:00"
  }, 
  {
    "store_number": 277, 
    "name": "Mayfield Hts", 
    "drive": "6:30 12:00", 
    "phone": "440-461-6055", 
    "image_url": "http://www.mcpennsylvania.com/images/operators/1000008686/277.jpg", 
    "address": "6225 Mayfield Rd.\nMayfield Heights, OH 44124", 
    "lat": 41.5205279, 
    "lng": -81.4553747, 
    "lobby": "7:00 10:00"
  }, 
  {
    "store_number": 278, 
    "name": "Restaurant #278", 
    "phone": "708-849-2134", 
    "image_url": "http://www.mcpennsylvania.com/images/restaurant_photos/default_photo.jpg", 
    "address": "226 W. Sibley\nDolton, IL 60419", 
    "lat": 41.622995, 
    "lng": -87.628491
  }, 
  {
    "store_number": 280, 
    "name": "Cleveland Street", 
    "drive": "6:00 11:00", 
    "phone": "605-343-6984", 
    "image_url": "http://www.mcpennsylvania.com/images/restaurant_photos/default_photo.jpg", 
    "address": "720 Cleveland Street\nRapid City, SD 57705", 
    "lat": 44.06169999999999, 
    "lng": -103.231366, 
    "lobby": "6:00 10:00"
  }, 
  {
    "store_number": 284, 
    "name": "Nicollet McDonald's", 
    "drive": "24 Hours", 
    "phone": "952-888-6844", 
    "image_url": "http://www.mcpennsylvania.com/images/operators/42/284.jpg", 
    "address": "8040 Nicollet Ave.\nBloomington, MN 55420", 
    "lat": 44.8578813, 
    "lng": -93.2791292, 
    "lobby": "24 Hours"
  }, 
  {
    "store_number": 287, 
    "name": "Verity", 
    "drive": "24 Hours", 
    "phone": "513-423-7390", 
    "image_url": "http://www.mcpennsylvania.com/images/operators/61/287.jpg", 
    "address": "2351 North Verity Parkway\nMiddletown, OH 45042", 
    "lat": 39.5268085, 
    "lng": -84.38532959999999, 
    "lobby": "24 Hours"
  }, 
  {
    "store_number": 288, 
    "name": "Broadway", 
    "drive": "24 Hours", 
    "phone": "865-687-1647", 
    "image_url": "http://www.mcpennsylvania.com/images/operators/1000009921/288.jpg", 
    "address": "3120 N. Broadway\nKnoxville, TN 37917", 
    "lat": 36.0008588, 
    "lng": -83.92508819999999, 
    "lobby": "5:00 11:00"
  }, 
  {
    "store_number": 289, 
    "name": "North Walnut", 
    "phone": "812-332-9618", 
    "image_url": "http://www.mcpennsylvania.com/images/operators/11109042/289.jpg", 
    "address": "2300 N Walnut St.\nBloomington, IN 47404", 
    "lat": 39.1871569, 
    "lng": -86.5336351
  }, 
  {
    "store_number": 290, 
    "name": "McDonald's Restaurants of LaPorte County", 
    "drive": "2:00 11:00", 
    "phone": "219-872-0411", 
    "image_url": "http://www.mcpennsylvania.com/images/restaurant_photos/default_photo.jpg", 
    "address": "3507 Franklin Street\nMichigan City, IN 46360", 
    "lat": 41.690419, 
    "lng": -86.894339, 
    "lobby": "5:00 11:00"
  }, 
  {
    "store_number": 291, 
    "name": "West St Paul McDonald's", 
    "drive": "24 Hours", 
    "phone": "651-457-6683", 
    "image_url": "http://www.mcpennsylvania.com/images/operators/1000029015/291.jpg", 
    "address": "1273 S. Robert Street\nWest St. Paul, MN 55118", 
    "lat": 44.9077849, 
    "lng": -93.0814802, 
    "lobby": "5:00 11:00"
  }, 
  {
    "store_number": 292, 
    "name": "Cache", 
    "drive": "24 Hours", 
    "phone": "580-351-9820", 
    "image_url": "http://www.mcpennsylvania.com/images/restaurant_photos/default_photo.jpg", 
    "address": "3144 Cache\nLawton, OK 73501", 
    "lat": 34.6231325, 
    "lng": -98.4347256, 
    "lobby": "5:30 11:00"
  }, 
  {
    "store_number": 293, 
    "name": "Parma Heights McDonald's", 
    "drive": "7:00 11:00", 
    "phone": "440-888-0313", 
    "image_url": "http://www.mcpennsylvania.com/images/operators/1000026734/293.jpg", 
    "address": "6421 Pearl Rd.\nParma Heights, OH 44130", 
    "lat": 41.3859632, 
    "lng": -81.76806359999999, 
    "lobby": "7:00 11:00"
  }, 
  {
    "store_number": 294, 
    "name": "Lower Burrell", 
    "drive": "6:00 11:00", 
    "phone": "724-335-2113", 
    "image_url": "http://www.mcpennsylvania.com/images/restaurant_photos/default_photo.jpg", 
    "address": "2741 Leechburg Rd.\nLower Burrell, PA 15068", 
    "lat": 40.5909883, 
    "lng": -79.735668, 
    "lobby": "6:00 10:00"
  }, 
  {
    "store_number": 295, 
    "name": "McDonald's of Ewing", 
    "drive": "5:30 12:00", 
    "phone": "609-883-2815", 
    "image_url": "http://www.mcpennsylvania.com/images/restaurant_photos/default_photo.jpg", 
    "address": "1885 North Olden Avenue\nTrenton, NJ 08638", 
    "lat": 40.2499135, 
    "lng": -74.7763318, 
    "lobby": "5:30 11:00"
  }, 
  {
    "store_number": 301, 
    "name": "Bristol McDonald's", 
    "drive": " ", 
    "phone": "860-589-7313", 
    "image_url": "http://www.mcpennsylvania.com/images/restaurant_photos/default_photo.jpg", 
    "address": "646 Farmington\nBristol, CT 06011", 
    "lat": 41.6903497, 
    "lng": -72.92249160000001, 
    "lobby": "5:00 1:00"
  }, 
  {
    "store_number": 302, 
    "name": "Restaurant #302", 
    "phone": "847-437-7949", 
    "image_url": "http://www.mcpennsylvania.com/images/restaurant_photos/default_photo.jpg", 
    "address": "1912 E. Higgins\nElk Grove Village, IL 60007", 
    "lat": 42.02178000000001, 
    "lng": -87.957128
  }, 
  {
    "store_number": 306, 
    "name": "Southgate", 
    "drive": "6:00 11:00", 
    "phone": "734-282-2712", 
    "image_url": "http://www.mcpennsylvania.com/images/operators/1000007831/306.jpg", 
    "address": "14845 Eureka Road\nSouthgate, MI 48195", 
    "lat": 42.198622, 
    "lng": -83.2046349, 
    "lobby": "6:00 11:00"
  }, 
  {
    "store_number": 308, 
    "name": "Restaurant #308", 
    "phone": "801-621-1905", 
    "image_url": "http://www.mcpennsylvania.com/images/restaurant_photos/default_photo.jpg", 
    "address": "1111 Washington Blvd\nOgden, UT 84404", 
    "lat": 41.245634, 
    "lng": -111.97048
  }, 
  {
    "store_number": 309, 
    "name": "Apple Ave", 
    "drive": "24 Hours", 
    "phone": "231-773-2131", 
    "image_url": "http://www.mcpennsylvania.com/images/operators/1000021115/309.jpg", 
    "address": "1491 Apple Ave.\nMuskegon, MI 49442", 
    "lat": 43.2342093, 
    "lng": -86.2052989, 
    "lobby": "6:00 10:00"
  }, 
  {
    "store_number": 312, 
    "name": "Wise Avenue", 
    "drive": "24 Hours", 
    "phone": "410-284-1560", 
    "image_url": "http://www.mcpennsylvania.com/images/restaurant_photos/default_photo.jpg", 
    "address": "7734 Wise Avenue\nBaltimore, MD 21222", 
    "lat": 39.2691362, 
    "lng": -76.5003909, 
    "lobby": "6:00 11:00"
  }, 
  {
    "store_number": 313, 
    "name": "South Minnesota Ave", 
    "drive": "24 Hours", 
    "phone": "605-338-2222", 
    "image_url": "http://www.mcpennsylvania.com/images/restaurant_photos/default_photo.jpg", 
    "address": "3200 South Minnesota Avenue\nSioux Falls, SD 57105", 
    "lat": 43.5155545, 
    "lng": -96.73072259999999, 
    "lobby": "5:00 11:00"
  }, 
  {
    "store_number": 315, 
    "name": "Oakton and Milwaukee", 
    "phone": "847-965-2391", 
    "image_url": "http://www.mcpennsylvania.com/images/operators/1000012108/315.jpg", 
    "address": "7969 N. Milwaukee Ave.\nNiles, IL 60648", 
    "lat": 42.0257924, 
    "lng": -87.8132203
  }, 
  {
    "store_number": 316, 
    "name": "McDonald's", 
    "drive": "24 Hours", 
    "phone": "336-882-9824", 
    "image_url": "http://www.mcpennsylvania.com/images/operators/1000020080/316.jpg", 
    "address": "1901 N Main St.\nHigh Point, NC 27262", 
    "lat": 35.9796585, 
    "lng": -80.0217047, 
    "lobby": "24 Hours"
  }, 
  {
    "store_number": 317, 
    "name": "South Topeka Blvd.", 
    "phone": "785-266-4770", 
    "image_url": "http://www.mcpennsylvania.com/images/operators/1000010856/317.jpg", 
    "address": "3117 South Topeka Avenue\nTopeka, KS 66611", 
    "lat": 39.011277, 
    "lng": -95.688621
  }, 
  {
    "store_number": 318, 
    "name": "Marion Main", 
    "drive": "24 Hours", 
    "phone": "740-382-6611", 
    "image_url": "http://www.mcpennsylvania.com/images/operators/61/318.jpg", 
    "address": "483 North Main Street\nMarion, OH 43302", 
    "lat": 40.5964728, 
    "lng": -83.12995049999999, 
    "lobby": "5:00 11:00"
  }, 
  {
    "store_number": 319, 
    "name": "Restaurant #319", 
    "phone": "810-985-5030", 
    "image_url": "http://www.mcpennsylvania.com/images/restaurant_photos/default_photo.jpg", 
    "address": "1125 24th Street\nPort Huron, MI 48060", 
    "lat": 42.971185, 
    "lng": -82.45312899999999
  }, 
  {
    "store_number": 320, 
    "name": "Dixie", 
    "drive": "6:00 11:00", 
    "phone": "859-341-8873", 
    "image_url": "http://www.mcpennsylvania.com/images/restaurant_photos/default_photo.jpg", 
    "address": "3050 Dixie Highway\nErlanger, KY 41018", 
    "lat": 39.021715, 
    "lng": -84.5885837, 
    "lobby": "6:00 11:00"
  }, 
  {
    "store_number": 324, 
    "name": "Fairmount Ave #324", 
    "phone": "716-484-8157", 
    "image_url": "http://www.mcpennsylvania.com/images/restaurant_photos/default_photo.jpg", 
    "address": "957 Fairmont Ave.\nJamestown, NY 14701", 
    "lat": 42.0970924, 
    "lng": -79.2915295
  }, 
  {
    "store_number": 326, 
    "name": "Carpentersville", 
    "drive": "24 Hours", 
    "phone": "847-428-9137", 
    "image_url": "http://www.mcpennsylvania.com/images/restaurant_photos/default_photo.jpg", 
    "address": "Rt 25 & Ravine Rd.\nCarpentersville, IL 60110", 
    "lat": 42.1080937, 
    "lng": -88.25805489999999, 
    "lobby": "5:00 11:00"
  }, 
  {
    "store_number": 328, 
    "name": "Free Pike", 
    "phone": "937-278-1707", 
    "image_url": "http://www.mcpennsylvania.com/images/restaurant_photos/default_photo.jpg", 
    "address": "3918 Free Pike\nDayton, OH 45416", 
    "lat": 39.7976328, 
    "lng": -84.2532458
  }, 
  {
    "store_number": 329, 
    "name": "Wheeling on Dundee", 
    "phone": "847-541-8487", 
    "image_url": "http://www.mcpennsylvania.com/images/operators/1000012108/329.jpg", 
    "address": "188 E. Dundee Rd.\nWheeling, IL 60090", 
    "lat": 42.14014, 
    "lng": -87.911118
  }, 
  {
    "store_number": 330, 
    "name": "Beaverton Hillsdale McDonald's", 
    "drive": "5:00 11:00", 
    "phone": "503-646-1816", 
    "image_url": "http://www.mcpennsylvania.com/images/operators/1000009653/330.jpg", 
    "address": "9475 Beaverton Hillsdale\nBeaverton, OR 97005", 
    "lat": 45.48685829999999, 
    "lng": -122.7741729, 
    "lobby": "5:00 11:00"
  }, 
  {
    "store_number": 335, 
    "name": "57th & Kedzie", 
    "drive": "24 Hours", 
    "phone": "773-471-1858", 
    "image_url": "http://www.mcpennsylvania.com/images/restaurant_photos/default_photo.jpg", 
    "address": "5733 S. Kedzie\nChicago, IL 60629", 
    "lat": 41.78861089999999, 
    "lng": -87.70315819999999, 
    "lobby": "5:00 11:00"
  }, 
  {
    "store_number": 337, 
    "name": "Military Road", 
    "phone": "716-205-0090", 
    "image_url": "http://www.mcpennsylvania.com/images/restaurant_photos/default_photo.jpg", 
    "address": "8420 Niagara Falls Blvd.\nNiagara Falls, NY 14304", 
    "lat": 43.0904169, 
    "lng": -78.96773619999999
  }, 
  {
    "store_number": 338, 
    "name": "McDonald's Doraville", 
    "drive": "24 Hours", 
    "phone": "770-457-3210", 
    "image_url": "http://www.mcpennsylvania.com/images/operators/31/338.jpg", 
    "address": "5220 Buford Highway\nDoraville, GA 30340", 
    "lat": 33.8955264, 
    "lng": -84.283338, 
    "lobby": "24 Hours"
  }, 
  {
    "store_number": 339, 
    "name": "Willowick McDonald's", 
    "drive": "24 Hours", 
    "phone": "440-944-6019", 
    "image_url": "http://www.mcpennsylvania.com/images/restaurant_photos/default_photo.jpg", 
    "address": "31115 Vine St.\nWillowick, OH 44095", 
    "lat": 41.64296179999999, 
    "lng": -81.4699657, 
    "lobby": "6:00 10:30"
  }, 
  {
    "store_number": 342, 
    "name": "McDonald's #0342", 
    "drive": "5:00 11:00", 
    "phone": "310-379-7755", 
    "image_url": "http://www.mcpennsylvania.com/images/operators/1000023964/342.jpg", 
    "address": "1203 Artesia Blvd.\nManhattan Beach, CA 90266", 
    "lat": 33.8730991, 
    "lng": -118.3936853, 
    "lobby": "5:00 11:00"
  }, 
  {
    "store_number": 343, 
    "name": "S.Seneca McDonald's restaurant", 
    "phone": "316-262-4331", 
    "image_url": "http://www.mcpennsylvania.com/images/restaurant_photos/default_photo.jpg", 
    "address": "2418 S. Seneca Ave.\nWichita, KS 67216", 
    "lat": 37.651237, 
    "lng": -97.352272
  }, 
  {
    "store_number": 346, 
    "name": "McDonald's", 
    "drive": "24 Hours", 
    "phone": "586-755-0290", 
    "image_url": "http://www.mcpennsylvania.com/images/restaurant_photos/default_photo.jpg", 
    "address": "27480 Van Dyke Road\nWarren, MI 48093", 
    "lat": 42.4961328, 
    "lng": -83.0271686, 
    "lobby": "6:00 11:00"
  }, 
  {
    "store_number": 348, 
    "name": "Union Road @ George Urban Blvd.", 
    "phone": "716-683-3376", 
    "image_url": "http://www.mcpennsylvania.com/images/restaurant_photos/default_photo.jpg", 
    "address": "3815 Union Road\nCheektowaga, NY 14225", 
    "lat": 42.9184005, 
    "lng": -78.7535207
  }, 
  {
    "store_number": 351, 
    "name": "Kearney", 
    "drive": "24 Hours", 
    "phone": "417-865-3166", 
    "image_url": "http://www.mcpennsylvania.com/images/restaurant_photos/default_photo.jpg", 
    "address": "1114 West Kearney\nSpringfield, MO 65803", 
    "lat": 37.24047480000001, 
    "lng": -93.3039831, 
    "lobby": "6:00 11:00"
  }, 
  {
    "store_number": 353, 
    "name": "Venice/Lincoln", 
    "drive": "5:00 2:00", 
    "phone": "310-822-5133", 
    "image_url": "http://www.mcpennsylvania.com/images/operators/1000017648/353.jpg", 
    "address": "2457 Lincoln Blvd\nVenice, CA 90291", 
    "lat": 33.99287, 
    "lng": -118.451112, 
    "lobby": "5:00 12:00"
  }, 
  {
    "store_number": 356, 
    "name": "West Springfield McDonald's", 
    "drive": "24 Hours", 
    "phone": "413-737-5153", 
    "image_url": "http://www.mcpennsylvania.com/images/restaurant_photos/default_photo.jpg", 
    "address": "352 Riverdale Rd.\nWest Springfield, MA 01089", 
    "lat": 42.115765, 
    "lng": -72.62403189999999, 
    "lobby": "24 Hours"
  }, 
  {
    "store_number": 357, 
    "name": "Restaurant #357", 
    "phone": "810-742-5101", 
    "image_url": "http://www.mcpennsylvania.com/images/restaurant_photos/default_photo.jpg", 
    "address": "3719 Davison Rd. E.\nFlint, MI 48506", 
    "lat": 43.0335309, 
    "lng": -83.6395826
  }, 
  {
    "store_number": 359, 
    "name": "Rocky Creek McDonald's", 
    "drive": " ", 
    "phone": "478-788-4233", 
    "image_url": "http://www.mcpennsylvania.com/images/restaurant_photos/default_photo.jpg", 
    "address": "1450 Rocky Creek Rd.\nMacon, GA 31206", 
    "lat": 32.7906741, 
    "lng": -83.67034389999999, 
    "lobby": "6:00 12:00"
  }, 
  {
    "store_number": 362, 
    "name": "McDonald's - Secor at Central", 
    "drive": "5:30 11:00", 
    "phone": "419-535-7661", 
    "image_url": "http://www.mcpennsylvania.com/images/operators/1000018257/362.jpg", 
    "address": "3138 Secor Rd.\nToledo, OH 43606", 
    "lat": 41.678647, 
    "lng": -83.6222219, 
    "lobby": "5:30 11:00"
  }, 
  {
    "store_number": 364, 
    "name": "4th Street McDonald's", 
    "phone": "505-344-6314", 
    "image_url": "http://www.mcpennsylvania.com/images/restaurant_photos/default_photo.jpg", 
    "address": "5324 4th St. NW\nAlbuquerque, NM 87107", 
    "lat": 35.1369695, 
    "lng": -106.641258
  }, 
  {
    "store_number": 366, 
    "name": "Memphis Avenue", 
    "drive": "24 Hours", 
    "phone": "216-661-6171", 
    "image_url": "http://www.mcpennsylvania.com/images/operators/61/366.jpg", 
    "address": "5616 Memphis Ave.\nCleveland, OH 44144", 
    "lat": 41.440214, 
    "lng": -81.7250105, 
    "lobby": "5:00 12:00"
  }, 
  {
    "store_number": 368, 
    "name": "Durham 1", 
    "drive": "24 Hours", 
    "phone": "919-220-4074", 
    "image_url": "http://www.mcpennsylvania.com/images/restaurant_photos/default_photo.jpg", 
    "address": "2010 N.Roxboro Rd.\nDurham, NC 27704", 
    "lat": 36.0166246, 
    "lng": -78.88960809999999, 
    "lobby": "5:30 11:00"
  }, 
  {
    "store_number": 371, 
    "name": "Prosperity McDonald's", 
    "drive": "24 Hours", 
    "phone": "651-774-4147", 
    "image_url": "http://www.mcpennsylvania.com/images/operators/1000015751/371.jpg", 
    "address": "1165 Prosperity Ave.\nSt. Paul, MN 55106", 
    "lat": 44.97754279999999, 
    "lng": -93.0404662, 
    "lobby": "5:00 10:00"
  }, 
  {
    "store_number": 373, 
    "name": "Worcester McDonald's", 
    "drive": "24 Hours", 
    "phone": "508-757-5357", 
    "image_url": "http://www.mcpennsylvania.com/images/operators/21/373.jpg", 
    "address": "995 Main Street\nWorcester, MA 01603", 
    "lat": 42.2477271, 
    "lng": -71.8261364, 
    "lobby": "5:00 11:00"
  }, 
  {
    "store_number": 375, 
    "name": "Peninsula Drive", 
    "phone": "814-833-4841", 
    "image_url": "http://www.mcpennsylvania.com/images/restaurant_photos/default_photo.jpg", 
    "address": "909 Peninsula Dr.\nErie, PA 16505", 
    "lat": 42.1024055, 
    "lng": -80.1466579
  }, 
  {
    "store_number": 380, 
    "name": "McDonald's Belmont", 
    "drive": "5:30 1:00", 
    "phone": "650-592-6833", 
    "image_url": "http://www.mcpennsylvania.com/images/operators/1000008048/380.jpg", 
    "address": "522 El Camino Real\nBelmont, CA 94002", 
    "lat": 37.5248718, 
    "lng": -122.2818347, 
    "lobby": "6:00 11:00"
  }, 
  {
    "store_number": 381, 
    "name": "Wallhaven", 
    "drive": "6:00 12:00", 
    "phone": "330-836-2951", 
    "image_url": "http://www.mcpennsylvania.com/images/operators/1000015905/381.jpg", 
    "address": "1720 W. Exchange St.\nAkron, OH 44313", 
    "lat": 41.1083142, 
    "lng": -81.5688052, 
    "lobby": "6:00 11:00"
  }, 
  {
    "store_number": 383, 
    "name": "Clarksville - Eastern Blvd", 
    "drive": "24 Hours", 
    "phone": "812-282-7481", 
    "image_url": "http://www.mcpennsylvania.com/images/restaurant_photos/default_photo.jpg", 
    "address": "1420 Eastern Blvd.\nClarksville, IN 47129", 
    "lat": 38.3093297, 
    "lng": -85.76961209999999, 
    "lobby": "24 Hours"
  }, 
  {
    "store_number": 384, 
    "name": "29th and Powell", 
    "phone": "503-233-4029", 
    "image_url": "http://www.mcpennsylvania.com/images/restaurant_photos/default_photo.jpg", 
    "address": "2875 SE Powell Blvd\nPortland, OR 97202", 
    "lat": 45.497751, 
    "lng": -122.6359003
  }, 
  {
    "store_number": 385, 
    "name": "Douglas Ave", 
    "drive": "24 Hours", 
    "phone": "262-639-6178", 
    "image_url": "http://www.mcpennsylvania.com/images/restaurant_photos/default_photo.jpg", 
    "address": "3037 N Douglas Ave\nRacine, WI 53402", 
    "lat": 42.756556, 
    "lng": -87.799428, 
    "lobby": "6:00 11:00"
  }, 
  {
    "store_number": 391, 
    "name": "Lincoln Park McDonald's", 
    "drive": "24 Hours", 
    "phone": "313-383-4800", 
    "image_url": "http://www.mcpennsylvania.com/images/restaurant_photos/default_photo.jpg", 
    "address": "2106 Dix Highway\nLincoln Park, MI 48146", 
    "lat": 42.2536604, 
    "lng": -83.194665, 
    "lobby": "6:00 11:00"
  }, 
  {
    "store_number": 392, 
    "name": "Chapman I", 
    "drive": "24 Hours", 
    "phone": "865-577-0097", 
    "image_url": "http://www.mcpennsylvania.com/images/operators/1000009921/392.jpg", 
    "address": "2505 Chapman Highway\nKnoxville, TN 37920", 
    "lat": 35.9505545, 
    "lng": -83.9146504, 
    "lobby": "6:00 11:00"
  }, 
  {
    "store_number": 396, 
    "name": "West Main McDonald's", 
    "drive": "5:30 12:00", 
    "phone": "618-233-5786", 
    "image_url": "http://www.mcpennsylvania.com/images/operators/1000016976/396.jpg", 
    "address": "4422 W. Main St.\nBelleville, IL 62223", 
    "lat": 38.54009509999999, 
    "lng": -90.02349889999999, 
    "lobby": "5:30 11:00"
  }, 
  {
    "store_number": 398, 
    "name": "Grand Avenue east of 63rd", 
    "drive": "5:00 12:00", 
    "phone": "515-255-2543", 
    "image_url": "http://www.mcpennsylvania.com/images/operators/1000024954/398.jpg", 
    "address": "6125 Grand Avenue\nDes Moines, IA 50312", 
    "lat": 41.5832024, 
    "lng": -93.7008858, 
    "lobby": "5:00 12:00"
  }, 
  {
    "store_number": 400, 
    "name": "Joppa 1", 
    "phone": "410-821-7593", 
    "image_url": "http://www.mcpennsylvania.com/images/operators/1000024521/400.jpg", 
    "address": "1619 East Joppa Road\nTowson, MD 21286", 
    "lat": 39.3965189, 
    "lng": -76.5652214
  }, 
  {
    "store_number": 401, 
    "name": "Roosevelt Road", 
    "drive": "24 Hours", 
    "phone": "708-749-1555", 
    "image_url": "http://www.mcpennsylvania.com/images/restaurant_photos/default_photo.jpg", 
    "address": "7135 W. Roosevelt Rd.\nBerwyn, IL 60402", 
    "lat": 41.8646359, 
    "lng": -87.8033245, 
    "lobby": "5:00 11:00"
  }, 
  {
    "store_number": 405, 
    "name": "Midtown", 
    "drive": "5:00 11:00", 
    "phone": "719-545-2388", 
    "image_url": "http://www.mcpennsylvania.com/images/restaurant_photos/default_photo.jpg", 
    "address": "800 W. 6th St.\nPueblo, CO 81002", 
    "lat": 38.271992, 
    "lng": -104.6181578, 
    "lobby": "5:00 10:00"
  }, 
  {
    "store_number": 406, 
    "name": "Perth Amboy", 
    "drive": "24 Hours", 
    "phone": "732-442-2980", 
    "image_url": "http://www.mcpennsylvania.com/images/restaurant_photos/default_photo.jpg", 
    "address": "633 New Brunswick\nPerth Amboy, NJ 08861", 
    "lat": 40.5207018, 
    "lng": -74.2856846, 
    "lobby": "24 Hours"
  }, 
  {
    "store_number": 407, 
    "name": "Fort Henry", 
    "drive": "6:00 12:00", 
    "phone": "423-246-6661", 
    "image_url": "http://www.mcpennsylvania.com/images/restaurant_photos/default_photo.jpg", 
    "address": "2330 Fort Henry Drive\nKingsport, TN 37664", 
    "lat": 36.52525790000001, 
    "lng": -82.52081199999999, 
    "lobby": "6:00 11:00"
  }, 
  {
    "store_number": 409, 
    "name": "Pass Road", 
    "drive": "5:00 11:00", 
    "phone": "228-432-1167", 
    "image_url": "http://www.mcpennsylvania.com/images/restaurant_photos/default_photo.jpg", 
    "address": "1644 Pass Rd\nBiloxi, MS 39531", 
    "lat": 30.4028675, 
    "lng": -88.9353601, 
    "lobby": "5:00 11:00"
  }, 
  {
    "store_number": 410, 
    "name": "4th Street McDonald's", 
    "phone": "620-665-5642", 
    "image_url": "http://www.mcpennsylvania.com/images/restaurant_photos/default_photo.jpg", 
    "address": "20 East 4th Street\nHutchinson, KS 67501", 
    "lat": 38.0576, 
    "lng": -97.93070000000002
  }, 
  {
    "store_number": 411, 
    "name": "Burien", 
    "phone": "206-243-9988", 
    "image_url": "http://www.mcpennsylvania.com/images/restaurant_photos/default_photo.jpg", 
    "address": "15620 1st Ave. S.\nBurien, WA 98148", 
    "lat": 47.4626184, 
    "lng": -122.3334053
  }, 
  {
    "store_number": 415, 
    "name": "119th and Western Ave", 
    "drive": "24 Hours", 
    "phone": "708-371-6118", 
    "image_url": "http://www.mcpennsylvania.com/images/restaurant_photos/default_photo.jpg", 
    "address": "11920 S. Western Ave.\nBlue Island, IL 60406", 
    "lat": 41.6766256, 
    "lng": -87.6810567, 
    "lobby": "6:00 11:00"
  }, 
  {
    "store_number": 416, 
    "name": "McDonald's of Redwood City", 
    "drive": "5:30 2:00", 
    "phone": "650-364-5316", 
    "image_url": "http://www.mcpennsylvania.com/images/operators/1000008048/416.jpg", 
    "address": "185 Chestnut St.\nRedwood City, CA 94063", 
    "lat": 37.4792898, 
    "lng": -122.2242071, 
    "lobby": "6:00 11:00"
  }, 
  {
    "store_number": 420, 
    "name": "Mount Ephraim McDonald's", 
    "drive": "24 Hours", 
    "phone": "856-931-0624", 
    "image_url": "http://www.mcpennsylvania.com/images/restaurant_photos/default_photo.jpg", 
    "address": "259 South Black Horse Pike\nMount Ephraim, NJ 08059", 
    "lat": 39.8757325, 
    "lng": -75.0842092, 
    "lobby": "24 Hours"
  }, 
  {
    "store_number": 422, 
    "name": "Restaurant #422", 
    "drive": "24 Hours", 
    "phone": "303-452-8894", 
    "image_url": "http://www.mcpennsylvania.com/images/restaurant_photos/default_photo.jpg", 
    "address": "599 W. 104th Ave.\nNorthglenn, CO 80234", 
    "lat": 39.885613, 
    "lng": -104.994657, 
    "lobby": "5:00 11:00"
  }, 
  {
    "store_number": 424, 
    "name": "Capital Plaza", 
    "drive": "24 Hours", 
    "phone": "512-452-7473", 
    "image_url": "http://www.mcpennsylvania.com/images/restaurant_photos/default_photo.jpg", 
    "address": "5355 North Interregional Highway\nAustin, TX 78723", 
    "lat": 30.3142074, 
    "lng": -97.7079785, 
    "lobby": "5:00 1:00"
  }, 
  {
    "store_number": 425, 
    "name": "91st and Powell", 
    "drive": "24 Hours", 
    "phone": "503-775-0339", 
    "image_url": "http://www.mcpennsylvania.com/images/restaurant_photos/default_photo.jpg", 
    "address": "9100 SE Powell Blvd\nPortland, OR 97266", 
    "lat": 45.496692, 
    "lng": -122.5701439, 
    "lobby": "5:00 10:00"
  }, 
  {
    "store_number": 428, 
    "name": "Penn Hills 1", 
    "phone": "412-243-0325", 
    "image_url": "http://www.mcpennsylvania.com/images/operators/1000026087/428.jpg", 
    "address": "11591 Frankstown Rd.\nPenn Hills, PA 15235", 
    "lat": 40.4652079, 
    "lng": -79.828907
  }, 
  {
    "store_number": 429, 
    "name": "Hazelwood McDonald's", 
    "drive": "24 Hours", 
    "phone": "314-921-8448", 
    "image_url": "http://www.mcpennsylvania.com/images/operators/4402/429.jpg", 
    "address": "7300 N Lindbergh\nHazelwood, MO 63042", 
    "lat": 38.78336090000001, 
    "lng": -90.35491479999999, 
    "lobby": "24 Hours"
  }, 
  {
    "store_number": 432, 
    "name": "Restaurant #432", 
    "phone": "989-755-7785", 
    "image_url": "http://www.mcpennsylvania.com/images/restaurant_photos/default_photo.jpg", 
    "address": "3700 E. Genessee St.\nSaginaw, MI 48601", 
    "lat": 43.4003929, 
    "lng": -83.9120818
  }, 
  {
    "store_number": 434, 
    "name": "Penco", 
    "drive": "24 Hours", 
    "phone": "303-832-4259", 
    "image_url": "http://www.mcpennsylvania.com/images/restaurant_photos/default_photo.jpg", 
    "address": "505 E. Colfax Ave.\nDenver, CO 80203", 
    "lat": 39.7401983, 
    "lng": -104.9807486, 
    "lobby": "5:00 10:00"
  }, 
  {
    "store_number": 435, 
    "name": "Rainier Ave", 
    "drive": "24 Hours", 
    "phone": "206-324-0834", 
    "image_url": "http://www.mcpennsylvania.com/images/operators/1000023384/435.jpg", 
    "address": "2336 25th Ave. S.\nSeattle, WA 98144", 
    "lat": 47.5816087, 
    "lng": -122.2999787, 
    "lobby": "5:00 11:00"
  }, 
  {
    "store_number": 437, 
    "name": "Torrance / Carson", 
    "phone": "310-320-2097", 
    "image_url": "http://www.mcpennsylvania.com/images/restaurant_photos/default_photo.jpg", 
    "address": "1452 West Carson Street\nTorrance, CA 90501", 
    "lat": 33.8311675, 
    "lng": -118.303346
  }, 
  {
    "store_number": 438, 
    "name": "SUGAR CREEK", 
    "phone": "816-254-8900", 
    "image_url": "http://www.mcpennsylvania.com/images/restaurant_photos/default_photo.jpg", 
    "address": "11700 E 24 Hwy\nIndependence, MO 64054", 
    "lat": 39.1024929, 
    "lng": -94.43650769999999
  }, 
  {
    "store_number": 441, 
    "name": "East Main", 
    "drive": "24 Hours", 
    "phone": "937-325-1052", 
    "image_url": "http://www.mcpennsylvania.com/images/operators/61/441.jpg", 
    "address": "2328 E. Main St.\nSpringfield, OH 45505", 
    "lat": 39.9236466, 
    "lng": -83.77359589999999, 
    "lobby": "24 Hours"
  }, 
  {
    "store_number": 442, 
    "name": "South Park", 
    "drive": "5:00 12:00", 
    "phone": "412-835-2642", 
    "image_url": "http://www.mcpennsylvania.com/images/restaurant_photos/default_photo.jpg", 
    "address": "5261 Library Rd.\nBethel Park, PA 15102", 
    "lat": 40.3318643, 
    "lng": -80.0223972, 
    "lobby": "5:00 11:00"
  }, 
  {
    "store_number": 445, 
    "name": "Lee Highway", 
    "drive": "24 Hours", 
    "phone": "703-525-3225", 
    "image_url": "http://www.mcpennsylvania.com/images/restaurant_photos/default_photo.jpg", 
    "address": "4834 Lee Highway\nArlington, VA 22207", 
    "lat": 38.8963215, 
    "lng": -77.1262627, 
    "lobby": "24 Hours"
  }, 
  {
    "store_number": 447, 
    "name": "Rome - Black River Boulevard", 
    "drive": "24 Hours", 
    "phone": "(315) 336-7541", 
    "image_url": "http://www.mcpennsylvania.com/images/restaurant_photos/default_photo.jpg", 
    "address": "1707 Black River Blvd.\nRome, NY 13440", 
    "lat": 43.2305175, 
    "lng": -75.4394847, 
    "lobby": "5:00 11:00"
  }, 
  {
    "store_number": 449, 
    "name": "Ensley McDonald's", 
    "drive": "24 Hours", 
    "phone": "205-780-4146", 
    "image_url": "http://www.mcpennsylvania.com/images/operators/1000000722/449.jpg", 
    "address": "3520 Ave. E.\nEnsley, AL 35218", 
    "lat": 33.4994224, 
    "lng": -86.9081412, 
    "lobby": "5:00 11:00"
  }, 
  {
    "store_number": 451, 
    "name": "Cedar Cliff", 
    "drive": "1:00 12:00", 
    "phone": "717-737-6404", 
    "image_url": "http://www.mcpennsylvania.com/images/restaurant_photos/default_photo.jpg", 
    "address": "1100 Carlisle Rd.,\n Cedar Cliff,\nCamp Hill, PA 17011", 
    "lat": 40.2293664, 
    "lng": -76.8962782, 
    "lobby": "5:00 11:00"
  }, 
  {
    "store_number": 453, 
    "name": "McDonald's of Hamilton", 
    "drive": "6:00 11:00", 
    "phone": "609-888-9824", 
    "image_url": "http://www.mcpennsylvania.com/images/restaurant_photos/default_photo.jpg", 
    "address": "2603 South Broad Street\nTrenton, NJ 08610", 
    "lat": 40.1922367, 
    "lng": -74.715755, 
    "lobby": "6:00 11:00"
  }, 
  {
    "store_number": 454, 
    "name": "McDonald's", 
    "drive": "5:00 11:00", 
    "phone": "850-785-3753", 
    "image_url": "http://www.mcpennsylvania.com/images/restaurant_photos/default_photo.jpg", 
    "address": "717 Harrison Ave.\nPanama City, FL 32405", 
    "lat": 30.1614024, 
    "lng": -85.66059589999999, 
    "lobby": "5:00 11:00"
  }, 
  {
    "store_number": 455, 
    "name": "Macon Road", 
    "phone": "706-561-8375", 
    "image_url": "http://www.mcpennsylvania.com/images/operators/1000004906/455.jpg", 
    "address": "3315 Macon Rd\nColumbus, GA 31906", 
    "lat": 32.4823003, 
    "lng": -84.9411439
  }, 
  {
    "store_number": 458, 
    "name": "24th and Cuming", 
    "drive": "24 Hours", 
    "phone": "402-342-1226", 
    "image_url": "http://www.mcpennsylvania.com/images/operators/1000011364/458.jpg", 
    "address": "1145 W. Bond\nLincoln, NE 68521", 
    "lat": 40.8444811, 
    "lng": -96.7385394, 
    "lobby": "5:00 11:00"
  }, 
  {
    "store_number": 459, 
    "name": "Ballard", 
    "drive": "24 Hours", 
    "phone": "206-782-5787", 
    "image_url": "http://www.mcpennsylvania.com/images/operators/1000023384/459.jpg", 
    "address": "5400 14th Ave. NW\nSeattle, WA 98107", 
    "lat": 47.668252, 
    "lng": -122.37318, 
    "lobby": "5:00 11:00"
  }, 
  {
    "store_number": 460, 
    "name": "606 Tustin", 
    "drive": "24 Hours", 
    "phone": "(714) 538-3460", 
    "image_url": "http://www.mcpennsylvania.com/images/operators/1000019781/460.jpg", 
    "address": "606 North Tustin Ave\nOrange, CA 92867", 
    "lat": 33.7969628, 
    "lng": -117.8362073, 
    "lobby": "6:00 11:00"
  }, 
  {
    "store_number": 462, 
    "name": "shreve city", 
    "phone": "318-861-2532", 
    "image_url": "http://www.mcpennsylvania.com/images/restaurant_photos/default_photo.jpg", 
    "address": "1302 Shreveport Barksdale Hwy\nShreveport, LA 71105", 
    "lat": 32.4890727, 
    "lng": -93.7045023
  }, 
  {
    "store_number": 463, 
    "name": "McDonald's of River Edge", 
    "drive": "24 Hours", 
    "phone": "201-489-9216", 
    "image_url": "http://www.mcpennsylvania.com/images/restaurant_photos/default_photo.jpg", 
    "address": "1118 Main St.\nRiver Edge, NJ 07661", 
    "lat": 40.912472, 
    "lng": -74.034795, 
    "lobby": "6:00 12:00"
  }, 
  {
    "store_number": 465, 
    "name": "Main Street McDonald's", 
    "drive": "6:00 11:00", 
    "phone": "417-623-1136", 
    "image_url": "http://www.mcpennsylvania.com/images/restaurant_photos/default_photo.jpg", 
    "address": "2701 South Main Street\nJoplin, MO 64804", 
    "lat": 37.0602139, 
    "lng": -94.5141965, 
    "lobby": "6:00 11:00"
  }, 
  {
    "store_number": 466, 
    "name": "FITCHBURG I", 
    "drive": "24 Hours", 
    "phone": "978-343-9618", 
    "image_url": "http://www.mcpennsylvania.com/images/operators/21/466.jpg", 
    "address": "334 John Fitch Highway\nFitchburg, MA 01420", 
    "lat": 42.5796138, 
    "lng": -71.7740622, 
    "lobby": "24 Hours"
  }, 
  {
    "store_number": 467, 
    "name": "Kinsman", 
    "drive": "5:00 11:00", 
    "phone": "216-368-0350", 
    "image_url": "http://www.mcpennsylvania.com/images/restaurant_photos/default_photo.jpg", 
    "address": "9101 Kinsman Rd.\nCleveland, OH 44104", 
    "lat": 41.4726907, 
    "lng": -81.62260619999999, 
    "lobby": "5:00 11:00"
  }, 
  {
    "store_number": 468, 
    "name": "Broadway", 
    "phone": "561-844-3846", 
    "image_url": "http://www.mcpennsylvania.com/images/restaurant_photos/default_photo.jpg", 
    "address": "3551 Broadway\nRiviera Beach, FL 33404", 
    "lat": 26.7909852, 
    "lng": -80.05469819999999
  }, 
  {
    "store_number": 470, 
    "name": "McDonald's", 
    "drive": "5:30 12:00", 
    "phone": "765-664-5149", 
    "image_url": "http://www.mcpennsylvania.com/images/operators/1000022431/470.jpg", 
    "address": "1225 W Baldwin Ave\nMarion, IN 46952", 
    "lat": 40.573699, 
    "lng": -85.67606500000001, 
    "lobby": "5:30 11:00"
  }, 
  {
    "store_number": 471, 
    "name": "Fall River McDonald's", 
    "drive": "24 Hours", 
    "phone": "508-678-0300", 
    "image_url": "http://www.mcpennsylvania.com/images/restaurant_photos/default_photo.jpg", 
    "address": "44 William S. Canning Blvd.\nFall River, MA 02721", 
    "lat": 41.6771208, 
    "lng": -71.1615554, 
    "lobby": "4:00 1:00"
  }, 
  {
    "store_number": 472, 
    "name": "Riverton", 
    "phone": "206-246-0807", 
    "image_url": "http://www.mcpennsylvania.com/images/restaurant_photos/default_photo.jpg", 
    "address": "15210 Pacific Hwy S.\nTukwila, WA 98188", 
    "lat": 47.4668638, 
    "lng": -122.2881282
  }, 
  {
    "store_number": 475, 
    "name": "Western", 
    "drive": "24 Hours", 
    "phone": "309-676-1633", 
    "image_url": "http://www.mcpennsylvania.com/images/operators/1000011547/475.jpg", 
    "address": "627 N. Western\nWest Peoria, IL 61604", 
    "lat": 40.6956429, 
    "lng": -89.62323699999999, 
    "lobby": "5:00 11:00"
  }, 
  {
    "store_number": 476, 
    "name": "Paramount & E. Carson St.", 
    "drive": "7:00 11:00", 
    "phone": "562-421-5526", 
    "image_url": "http://www.mcpennsylvania.com/images/operators/1000010754/476.jpg", 
    "address": "2707 E Carson St\nLakewood, CA 90712", 
    "lat": 33.83276500000001, 
    "lng": -118.159522, 
    "lobby": "7:00 11:00"
  }, 
  {
    "store_number": 478, 
    "name": "Merle Hay Road McDonald's", 
    "drive": "5:00 12:00", 
    "phone": "515-276-1525", 
    "image_url": "http://www.mcpennsylvania.com/images/operators/1000024954/478.jpg", 
    "address": "3610 Merle Hay Road\nDes Moines, IA 50310", 
    "lat": 41.6281235, 
    "lng": -93.69831909999999, 
    "lobby": "5:00 12:00"
  }, 
  {
    "store_number": 482, 
    "name": "Gulf to Bay", 
    "phone": "727-442-1286", 
    "image_url": "http://www.mcpennsylvania.com/images/restaurant_photos/default_photo.jpg", 
    "address": "1860 Gulf To Bay Blvd.\nClearwater, FL 33765", 
    "lat": 27.960932, 
    "lng": -82.7604051
  }, 
  {
    "store_number": 483, 
    "name": "Restaurant #483", 
    "drive": "24 Hours", 
    "phone": "714-995-1251", 
    "image_url": "http://www.mcpennsylvania.com/images/operators/1000007543/483.jpg", 
    "address": "2411 West Ball Road\nAnaheim, CA 92804", 
    "lat": 33.818016, 
    "lng": -117.968456, 
    "lobby": "6:00 11:00"
  }, 
  {
    "store_number": 486, 
    "name": "Pacoima / Osborne", 
    "phone": "818-894-9040", 
    "image_url": "http://www.mcpennsylvania.com/images/restaurant_photos/default_photo.jpg", 
    "address": "14024 Osborne Street\nPacoima, CA 91331", 
    "lat": 34.2331328, 
    "lng": -118.4378261
  }, 
  {
    "store_number": 487, 
    "name": "McDonald's", 
    "drive": "24 Hours", 
    "phone": "586-777-6520", 
    "image_url": "http://www.mcpennsylvania.com/images/restaurant_photos/default_photo.jpg", 
    "address": "27901 Gratiot Avenue\nRoseville, MI 48066", 
    "lat": 42.5016313, 
    "lng": -82.9345388, 
    "lobby": "6:00 11:00"
  }, 
  {
    "store_number": 488, 
    "name": "Harper", 
    "phone": "586-293-4060", 
    "image_url": "http://www.mcpennsylvania.com/images/restaurant_photos/default_photo.jpg", 
    "address": "31255 Harper Avenue\nSt. Clair Shores, MI 48082", 
    "lat": 42.5260978, 
    "lng": -82.89703689999999
  }, 
  {
    "store_number": 490, 
    "name": "103rd/Kedzie", 
    "drive": "24 Hours", 
    "phone": "773-238-1216", 
    "image_url": "http://www.mcpennsylvania.com/images/restaurant_photos/default_photo.jpg", 
    "address": "10320 S. Kedzie\nChicago, IL 60655", 
    "lat": 41.705484, 
    "lng": -87.70168, 
    "lobby": "5:00 11:00"
  }, 
  {
    "store_number": 491, 
    "name": "Winchester Ave.", 
    "phone": "606-324-1214", 
    "image_url": "http://www.mcpennsylvania.com/images/operators/1000007725/491.jpg", 
    "address": "2550 Winchester Ave.\nAshland, KY 41101", 
    "lat": 38.4720279, 
    "lng": -82.6271924
  }, 
  {
    "store_number": 492, 
    "name": "Morgan", 
    "drive": "5:00 12:00", 
    "phone": "414-645-1333", 
    "image_url": "http://www.mcpennsylvania.com/images/restaurant_photos/default_photo.jpg", 
    "address": "2612 West Morgan Avenue\nMilwaukee, WI 53221", 
    "lat": 42.981662, 
    "lng": -87.947356, 
    "lobby": "5:00 11:00"
  }, 
  {
    "store_number": 493, 
    "name": "North Michigan Street - South Bend", 
    "drive": "24 Hours", 
    "phone": "574-234-3215", 
    "image_url": "http://www.mcpennsylvania.com/images/restaurant_photos/default_photo.jpg", 
    "address": "416 N. Michigan St.\nSouth Bend, IN 46601", 
    "lat": 41.6809817, 
    "lng": -86.25008799999999, 
    "lobby": "5:00 10:00"
  }, 
  {
    "store_number": 496, 
    "name": "Veterans & Williams", 
    "drive": "24 Hours", 
    "phone": "504-466-0979", 
    "image_url": "http://www.mcpennsylvania.com/images/restaurant_photos/default_photo.jpg", 
    "address": "2145 Veterans Memorial Blvd.\nKenner, LA 70062", 
    "lat": 30.0060335, 
    "lng": -90.23875009999999, 
    "lobby": "6:00 11:00"
  }, 
  {
    "store_number": 500, 
    "name": "McDonald's #500", 
    "phone": "863-293-1445", 
    "image_url": "http://www.mcpennsylvania.com/images/operators/1000010950/500.jpg", 
    "address": "6th Street Northwest\nWinter Haven, FL 33880", 
    "lat": 28.015911, 
    "lng": -81.7334013
  }, 
  {
    "store_number": 501, 
    "name": "Restaurant #501", 
    "drive": "6:00 12:00", 
    "phone": "978-475-9854", 
    "image_url": "http://www.mcpennsylvania.com/images/restaurant_photos/default_photo.jpg", 
    "address": "195 North Main Street\nAndover, MA 01810", 
    "lat": 42.663242, 
    "lng": -71.1447239, 
    "lobby": "6:00 12:00"
  }, 
  {
    "store_number": 503, 
    "name": "82nd & Fremont", 
    "drive": "24 Hours", 
    "phone": "503-254-5349", 
    "image_url": "http://www.mcpennsylvania.com/images/restaurant_photos/default_photo.jpg", 
    "address": "3330 NE 82nd Avenue\nPortland, OR 97220", 
    "lat": 45.5469598, 
    "lng": -122.5783765, 
    "lobby": "5:00 11:00"
  }, 
  {
    "store_number": 504, 
    "name": "Mayfield & Green", 
    "drive": "6:00 11:00", 
    "phone": "216-382-0814", 
    "image_url": "http://www.mcpennsylvania.com/images/restaurant_photos/default_photo.jpg", 
    "address": "4500 Mayfield Rd\nSouth Euclid, OH 44121", 
    "lat": 41.5194533, 
    "lng": -81.51800639999999, 
    "lobby": "6:00 10:30"
  }, 
  {
    "store_number": 505, 
    "name": "Garners Ferry @ Wild Cat", 
    "drive": "24 Hours", 
    "phone": "803-787-0934", 
    "image_url": "http://www.mcpennsylvania.com/images/restaurant_photos/default_photo.jpg", 
    "address": "4801 Garners Ferry Road\nColumbia, SC 29209", 
    "lat": 33.989094, 
    "lng": -80.972471, 
    "lobby": "5:00 11:00"
  }, 
  {
    "store_number": 506, 
    "name": "Mamaroneck", 
    "drive": "24 Hours", 
    "phone": "914-698-2863", 
    "image_url": "http://www.mcpennsylvania.com/images/operators/1000014143/506.jpg", 
    "address": "1205 Old Boston Post Rd\nMamaroneck, NY 10543", 
    "lat": 40.9391278, 
    "lng": -73.7441254, 
    "lobby": "24 Hours"
  }, 
  {
    "store_number": 507, 
    "name": "Dinkytown", 
    "phone": "612-331-6590", 
    "image_url": "http://www.mcpennsylvania.com/images/operators/1000013273/507.jpg", 
    "address": "407 15th Ave. SE\nMinneapolis, MN 55414", 
    "lat": 44.9802988, 
    "lng": -93.23450059999999
  }, 
  {
    "store_number": 512, 
    "name": "McDonald's  #512", 
    "drive": "5:00 11:00", 
    "phone": "217-222-8191", 
    "image_url": "http://www.mcpennsylvania.com/images/operators/1000020595/512.jpg", 
    "address": "3201 East Broadway\nQuincy, IL 62301", 
    "lat": 39.9356653, 
    "lng": -91.3643347, 
    "lobby": "6:00 11:00"
  }, 
  {
    "store_number": 513, 
    "name": "Restaurant #513", 
    "drive": "24 Hours", 
    "phone": "714-991-3211", 
    "image_url": "http://www.mcpennsylvania.com/images/operators/1000007543/513.jpg", 
    "address": "119 West Ball Road\nAnaheim, CA 92805", 
    "lat": 33.818539, 
    "lng": -117.909195, 
    "lobby": "5:00 12:00"
  }, 
  {
    "store_number": 516, 
    "name": "Severna Park 1", 
    "drive": "5:00 12:00", 
    "phone": "410-544-0595", 
    "image_url": "http://www.mcpennsylvania.com/images/restaurant_photos/default_photo.jpg", 
    "address": "525 Baltimore Annapolis Blvd.\nSeverna Park, MD 21146", 
    "lat": 39.075772, 
    "lng": -76.54839249999999, 
    "lobby": "5:00 11:00"
  }, 
  {
    "store_number": 520, 
    "name": "San Jose- 3rd and San Carlos", 
    "drive": " ", 
    "phone": "", 
    "image_url": "http://www.mcpennsylvania.com/images/restaurant_photos/default_photo.jpg", 
    "address": "90 E. San Carlos St.\nSan Jose, CA 95112", 
    "lat": 37.3320564, 
    "lng": -121.88505, 
    "lobby": "7:00 11:00"
  }, 
  {
    "store_number": 521, 
    "name": "Charleston Hwy", 
    "phone": "803-794-8193", 
    "image_url": "http://www.mcpennsylvania.com/images/restaurant_photos/default_photo.jpg", 
    "address": "1303 Charleston Highway\nWest Columbia, SC 29169", 
    "lat": 33.976224, 
    "lng": -81.075048
  }, 
  {
    "store_number": 524, 
    "name": "Burbank San Fernando", 
    "phone": "818-842-5878", 
    "image_url": "http://www.mcpennsylvania.com/images/restaurant_photos/default_photo.jpg", 
    "address": "1127 North San Fernando Blvd\nBurbank, CA 91504", 
    "lat": 34.1885461, 
    "lng": -118.3197254
  }, 
  {
    "store_number": 525, 
    "name": "Glen Burnie", 
    "phone": "410-761-6060", 
    "image_url": "http://www.mcpennsylvania.com/images/restaurant_photos/default_photo.jpg", 
    "address": "6906 Ritchie Highway\nGlen Burnie, MD 21061", 
    "lat": 39.1862807, 
    "lng": -76.6134312
  }, 
  {
    "store_number": 529, 
    "name": "6006 Plank Road @ Denham St.", 
    "drive": "24 Hours", 
    "phone": "225-355-9150", 
    "image_url": "http://www.mcpennsylvania.com/images/operators/1000006084/529.jpg", 
    "address": "6006 Plank Rd.\nBaton Rouge, LA 70805", 
    "lat": 30.5047992, 
    "lng": -91.1507176, 
    "lobby": "5:00 12:00"
  }, 
  {
    "store_number": 530, 
    "name": "Sixth Avenue", 
    "drive": "5:00 12:00", 
    "phone": "256-353-8911", 
    "image_url": "http://www.mcpennsylvania.com/images/restaurant_photos/default_photo.jpg", 
    "address": "1208 6th Ave. SE\nDecatur, AL 35601", 
    "lat": 34.5891646, 
    "lng": -86.9799804, 
    "lobby": "5:00 11:00"
  }, 
  {
    "store_number": 531, 
    "name": "Crystal McDonald's", 
    "drive": "5:00 12:00", 
    "phone": "763-533-8150", 
    "image_url": "http://www.mcpennsylvania.com/images/operators/1000017922/531.jpg", 
    "address": "5400 W. Broadway\nCrystal, MN 55428", 
    "lat": 45.0513139, 
    "lng": -93.360765, 
    "lobby": "5:00 12:00"
  }, 
  {
    "store_number": 532, 
    "name": "Middle Belt", 
    "phone": "816-233-1454", 
    "image_url": "http://www.mcpennsylvania.com/images/operators/1000015837/532.jpg", 
    "address": "601 North Belt Highway\nSt. Joseph, MO 64506", 
    "lat": 39.77132, 
    "lng": -94.80297499999999
  }, 
  {
    "store_number": 534, 
    "name": "Torrance/Torrance", 
    "phone": "310-542-3167", 
    "image_url": "http://www.mcpennsylvania.com/images/restaurant_photos/default_photo.jpg", 
    "address": "5019 Torrance Blvd\nTorrance, CA 90503", 
    "lat": 33.83798, 
    "lng": -118.367418
  }, 
  {
    "store_number": 536, 
    "name": "Waterloo Road", 
    "drive": "5:00 12:00", 
    "phone": "330-724-5126", 
    "image_url": "http://www.mcpennsylvania.com/images/operators/1000015905/536.jpg", 
    "address": "946 E. Waterloo Rd.\nAkron, OH 44306", 
    "lat": 41.0291446, 
    "lng": -81.4928431, 
    "lobby": "5:00 11:00"
  }, 
  {
    "store_number": 538, 
    "name": "Restaurant #538", 
    "drive": " ", 
    "phone": "301-929-0372", 
    "image_url": "http://www.mcpennsylvania.com/images/restaurant_photos/default_photo.jpg", 
    "address": "12313 Georgia Avenue\nSilver Spring, MD 20906", 
    "lat": 39.059134, 
    "lng": -77.049544, 
    "lobby": "24 Hours"
  }, 
  {
    "store_number": 540, 
    "name": "Montebello", 
    "drive": "24 Hours", 
    "phone": "323-721-5447", 
    "image_url": "http://www.mcpennsylvania.com/images/operators/1000020328/540.jpg", 
    "address": "2020 West Beverly Blvd\nMontebello, CA 90640", 
    "lat": 34.0206633, 
    "lng": -118.1210451, 
    "lobby": "5:00 12:00"
  }, 
  {
    "store_number": 543, 
    "name": "East Franklin", 
    "drive": "24 Hours", 
    "phone": "704-864-6051", 
    "image_url": "http://www.mcpennsylvania.com/images/restaurant_photos/default_photo.jpg", 
    "address": "1500 E. Franklin Blvd.\nGastonia, NC 28052", 
    "lat": 35.2606337, 
    "lng": -81.20852839999999, 
    "lobby": "24 Hours"
  }, 
  {
    "store_number": 549, 
    "name": "McDonald's of Roslindale", 
    "drive": "6:00 12:00", 
    "phone": "617-323-7027", 
    "image_url": "http://www.mcpennsylvania.com/images/operators/1000010360/549.jpg", 
    "address": "718 American Legion Highway\nRoslindale, MA 02131", 
    "lat": 42.2828909, 
    "lng": -71.11352649999999, 
    "lobby": "6:00 11:00"
  }, 
  {
    "store_number": 550, 
    "name": "McDonald's Restaurant", 
    "phone": "517-323-3528", 
    "image_url": "http://www.mcpennsylvania.com/images/restaurant_photos/default_photo.jpg", 
    "address": "4015 W. Saginaw Hwy\nLansing, MI 48917", 
    "lat": 42.74070160000001, 
    "lng": -84.6046726
  }, 
  {
    "store_number": 551, 
    "name": "South Parkway (near Drake Ave)", 
    "drive": "24 Hours", 
    "phone": "256-535-6064", 
    "image_url": "http://www.mcpennsylvania.com/images/operators/1000022287/551.jpg", 
    "address": "2704 S. Memorial Pkwy\nHuntsville, AL 35801", 
    "lat": 34.6998447, 
    "lng": -86.58590819999999, 
    "lobby": "24 Hours"
  }, 
  {
    "store_number": 552, 
    "name": "North Hills", 
    "drive": "24 Hours", 
    "phone": "818-894-5554", 
    "image_url": "http://www.mcpennsylvania.com/images/restaurant_photos/default_photo.jpg", 
    "address": "16908 Parthenia Street\nSepulveda, CA 91343", 
    "lat": 34.228246, 
    "lng": -118.500659, 
    "lobby": "24 Hours"
  }, 
  {
    "store_number": 553, 
    "name": "Prince", 
    "drive": "24 Hours", 
    "phone": "706-543-0522", 
    "image_url": "http://www.mcpennsylvania.com/images/operators/1000004386/553.jpg", 
    "address": "1124 Prince Avenue\nAthens, GA 30601", 
    "lat": 33.9625803, 
    "lng": -83.3958923, 
    "lobby": "24 Hours"
  }, 
  {
    "store_number": 555, 
    "name": "McDonald's", 
    "drive": "5:00 12:00", 
    "phone": "651-777-7566", 
    "image_url": "http://www.mcpennsylvania.com/images/operators/1000016736/555.jpg", 
    "address": "2070 County Road E E\nWhite Bear Lake, MN 55110", 
    "lat": 45.0497843, 
    "lng": -93.0137594, 
    "lobby": "5:00 11:00"
  }, 
  {
    "store_number": 557, 
    "name": "North Frankford Ave.", 
    "drive": "5:00 12:00", 
    "phone": "215-332-8007", 
    "image_url": "http://www.mcpennsylvania.com/images/restaurant_photos/default_photo.jpg", 
    "address": "8901 Frankford Avenue\nPhiladelphia, PA 19136", 
    "lat": 40.050384, 
    "lng": -75.009517, 
    "lobby": "5:00 11:00"
  }, 
  {
    "store_number": 558, 
    "name": "Walton Way", 
    "phone": "706-722-2747", 
    "image_url": "http://www.mcpennsylvania.com/images/restaurant_photos/default_photo.jpg", 
    "address": "1464 Walton Way\nAugusta, GA 30904", 
    "lat": 33.4743311, 
    "lng": -81.9860628
  },